place_id,place_name,latitude,longitude,category,subcategory,address,rating,rating_normalized,tags,source,osm_id,website,phone,opening_hours,cuisine,description,wheelchair,fee,image,is_free,is_open_24h,price_level,category_label
OPE_6042492266,Aims Cafeteria,18.562973,73.810633,cafe,cafe,N/A,N/A,,food|coffee|casual|hangout,openstreetmap,6042492266,N/A,N/A,N/A,regional,N/A,N/A,N/A,N/A,False,False,budget,Café / Coffee Shop
OPE_12383891002,Alag Aasmaan,18.569705,73.910701,cafe,cafe,"Pratapkumar Path, Pune, 411014",N/A,,food|coffee|casual|hangout,openstreetmap,12383891002,N/A,N/A,Mo-Su 09:00-21:00,coffee_shop,N/A,N/A,N/A,N/A,False,False,budget,Café / Coffee Shop
OPE_13598461957,Amruttulya And Alpopahar,18.527259,73.876236,cafe,cafe,N/A,N/A,,food|coffee|casual|hangout,openstreetmap,13598461957,N/A,N/A,N/A,N/A,N/A,N/A,N/A,N/A,False,False,budget,Café / Coffee Shop
OPE_10302188523,Amul,18.44478,73.786691,cafe,ice_cream,"Sinhagad Road, Pune, 411024",N/A,,food|coffee|casual|hangout,openstreetmap,10302188523,N/A,N/A,N/A,N/A,N/A,N/A,N/A,N/A,False,False,budget,Café / Coffee Shop
OPE_5832438796,Amul,18.502389,73.804812,cafe,ice_cream,N/A,N/A,,food|coffee|casual|hangout,openstreetmap,5832438796,N/A,N/A,N/A,N/A,N/A,N/A,N/A,N/A,False,False,budget,Café / Coffee Shop
OPE_6111011975,Amul,18.540277,73.829692,cafe,ice_cream,N/A,N/A,,food|coffee|casual|hangout,openstreetmap,6111011975,N/A,N/A,N/A,N/A,N/A,N/A,N/A,N/A,False,False,budget,Café / Coffee Shop
OPE_10241855446,Amul,18.510885,73.815554,cafe,ice_cream,"Vishwashanti Marg, Pune, 411038",N/A,,food|coffee|casual|hangout,openstreetmap,10241855446,N/A,N/A,N/A,N/A,N/A,N/A,N/A,N/A,False,False,budget,Café / Coffee Shop
OPE_5832438797,Amul,18.517919,73.838126,cafe,ice_cream,N/A,N/A,,food|coffee|casual|hangout,openstreetmap,5832438797,N/A,N/A,N/A,N/A,N/A,N/A,N/A,N/A,False,False,budget,Café / Coffee Shop
OPE_9975580510,Amul Cafe,18.543956,73.792669,cafe,ice_cream,N/A,N/A,,food|coffee|casual|hangout,openstreetmap,9975580510,N/A,N/A,N/A,N/A,"Foods, dairy and icecream",N/A,N/A,N/A,False,False,budget,Café / Coffee Shop
OPE_13666839579,Amul Ice Cream Parlour,18.553883,73.904965,cafe,ice_cream,N/A,N/A,,food|coffee|casual|hangout,openstreetmap,13666839579,N/A,N/A,N/A,N/A,N/A,N/A,N/A,N/A,False,False,budget,Café / Coffee Shop
OPE_10108645153,Amul Ice Parlour (कन्हैया Sm Nut'S & Dry Fruits),18.479128,73.830027,cafe,ice_cream,"Hingane Internal Road, Pune, 411051",N/A,,food|coffee|casual|hangout,openstreetmap,10108645153,N/A,N/A,N/A,N/A,N/A,N/A,N/A,N/A,False,False,budget,Café / Coffee Shop
OPE_5839779125,Amul Ice-Cream Parlour,18.490608,73.823264,cafe,ice_cream,N/A,N/A,,food|coffee|casual|hangout,openstreetmap,5839779125,N/A,N/A,N/A,N/A,N/A,N/A,N/A,N/A,False,False,budget,Café / Coffee Shop
OPE_12299360086,Amul Icecream,18.558561,73.931634,cafe,ice_cream,N/A,N/A,,food|coffee|casual|hangout,openstreetmap,12299360086,N/A,N/A,N/A,N/A,N/A,N/A,N/A,N/A,False,False,budget,Café / Coffee Shop
OPE_859971594,Anies,18.48205,73.90529,cafe,cafe,N/A,N/A,,food|coffee|casual|hangout,openstreetmap,859971594,N/A,N/A,24/7,regional;chicken;coffee_shop,N/A,N/A,N/A,N/A,False,True,budget,Café / Coffee Shop
OPE_1458945429,Aroma Cafe,18.58444,73.892816,cafe,cafe,N/A,N/A,,food|coffee|casual|hangout,openstreetmap,1458945429,N/A,N/A,Mo-Su 10:00-22:00,burger;coffee_shop;pizza;ice_cream,N/A,N/A,N/A,N/A,False,False,budget,Café / Coffee Shop
OPE_663592103,Aroma'S,18.538788,73.905203,cafe,cafe,N/A,N/A,,food|coffee|casual|hangout,openstreetmap,663592103,N/A,N/A,N/A,N/A,N/A,N/A,N/A,N/A,False,False,budget,Café / Coffee Shop
OPE_11111744793,Aromas Cafe & Bistro,18.554722,73.800054,cafe,cafe,N/A,N/A,,food|coffee|casual|hangout,openstreetmap,11111744793,N/A,N/A,N/A,N/A,N/A,N/A,N/A,N/A,False,False,budget,Café / Coffee Shop
OPE_11218887281,Arun Icecreams,18.509714,73.794729,cafe,ice_cream,411038,N/A,,food|coffee|casual|hangout,openstreetmap,11218887281,N/A,N/A,Mo-Su 09:00-23:00,N/A,N/A,N/A,N/A,N/A,False,False,budget,Café / Coffee Shop
OPE_11065644757,Backseat Brews,18.567817,73.909937,cafe,cafe,"Dei Gratia, Viman nagar, Pune, 411014",N/A,,food|coffee|casual|hangout,openstreetmap,11065644757,N/A,+918888437374,Mo-Su 09:00-23:00,coffee_shop;pizza;burger;italian;sandwich;chicken;french;pasta;indian;ice_cream;dessert;chocolate,N/A,N/A,N/A,N/A,False,False,budget,Café / Coffee Shop
OPE_9410145905,Barista,18.553923,73.90395,cafe,cafe,N/A,N/A,,food|coffee|casual|hangout,openstreetmap,9410145905,N/A,N/A,Mo-Fr 09:00-18:00,coffee_shop,N/A,N/A,N/A,N/A,False,False,budget,Café / Coffee Shop
OPE_2183488936,Barista Lavazza,18.515196,73.828691,cafe,cafe,N/A,N/A,,food|coffee|casual|hangout,openstreetmap,2183488936,http://barista.co.in/,02025662080,N/A,N/A,N/A,N/A,N/A,N/A,False,False,budget,Café / Coffee Shop
OPE_824469850,Barista Lavazza,18.518197,73.879329,cafe,cafe,N/A,N/A,,food|coffee|casual|hangout,openstreetmap,824469850,N/A,N/A,N/A,N/A,N/A,N/A,N/A,N/A,False,False,budget,Café / Coffee Shop
OPE_9090380090,Best Cafe,18.519123,73.875963,cafe,cafe,N/A,N/A,,food|coffee|casual|hangout,openstreetmap,9090380090,N/A,N/A,Mo-Su 09:00-21:00,N/A,N/A,N/A,N/A,N/A,False,False,budget,Café / Coffee Shop
OPE_3983902182,Bhau'S Cafe,18.544066,73.781674,cafe,cafe,"Pashan-Sus Road, Pune, 411021",N/A,,food|coffee|casual|hangout,openstreetmap,3983902182,N/A,N/A,N/A,coffee_shop,N/A,N/A,N/A,N/A,False,False,budget,Café / Coffee Shop
OPE_2787986706,Birdy'S Cake Shop,18.503162,73.820021,cafe,cafe,"Karve Road, Pune, 411038",N/A,,food|coffee|casual|hangout,openstreetmap,2787986706,N/A,N/A,N/A,"pastry,cakes",N/A,N/A,N/A,N/A,False,False,budget,Café / Coffee Shop
OPE_12801991326,Blue Tokai Coffee Roasters,18.524117,73.843734,cafe,cafe,N/A,N/A,,food|coffee|casual|hangout,openstreetmap,12801991326,N/A,N/A,N/A,coffee_shop;burger,N/A,N/A,N/A,N/A,False,False,budget,Café / Coffee Shop
OPE_11159366024,Bombay Creamery,18.557122,73.793644,cafe,cafe,N/A,N/A,,food|coffee|casual|hangout,openstreetmap,11159366024,N/A,N/A,N/A,N/A,N/A,N/A,N/A,N/A,False,False,budget,Café / Coffee Shop
OPE_3269062066,"Bookbar - Artisanal Cafe, Bookstore And Pizzahouse",18.525417,73.841394,cafe,cafe,"Ground Floor, Sanas Memories, 1&2,, Fergusson College Road, Pune, 411003",N/A,,food|coffee|casual|hangout,openstreetmap,3269062066,N/A,N/A,Mo-Su 10:00-23:30,coffee_shop,N/A,N/A,N/A,N/A,False,False,budget,Café / Coffee Shop
OPE_2036476888,Brew Brothers,18.477798,73.901632,cafe,cafe,"Narayan Annaji Shinde Road, Pune, 411048",N/A,,food|coffee|casual|hangout,openstreetmap,2036476888,N/A,N/A,N/A,coffee_shop,N/A,N/A,N/A,N/A,False,False,budget,Café / Coffee Shop
OPE_10117684095,Brew Culture,18.536593,73.89904,cafe,cafe,N/A,N/A,,food|coffee|casual|hangout,openstreetmap,10117684095,N/A,N/A,N/A,coffee_shop,N/A,N/A,N/A,N/A,False,False,budget,Café / Coffee Shop
OPE_12383884204,Brew Culture,18.566882,73.910695,cafe,cafe,"Viman Nagar Road, Pune, 411014",N/A,,food|coffee|casual|hangout,openstreetmap,12383884204,N/A,N/A,Mo-Su 09:00-21:00,coffee_shop,N/A,N/A,N/A,N/A,False,False,budget,Café / Coffee Shop
OPE_13128764752,Brew Hub,18.455635,73.919916,cafe,cafe,"Undri Road, Pune, 411060",N/A,,food|coffee|casual|hangout,openstreetmap,13128764752,N/A,N/A,Mo-Su 17:00-23:00,coffee_shop,N/A,N/A,N/A,N/A,False,False,budget,Café / Coffee Shop
OPE_5870770162,Brewbakes Café|Bistro Paud Raod,18.508305,73.822303,cafe,cafe,"ShopNo#2 ,Rokade Heights ,Near Suzuki Showroom, Paud Road, Pune, 411038",N/A,,food|coffee|casual|hangout,openstreetmap,5870770162,N/A,+919011430170,Mo-Su 11:00-23:00,pizza;burger;sandwich;coffee_shop;ice_cream;chicken,N/A,N/A,N/A,N/A,False,False,budget,Café / Coffee Shop
OPE_12422145784,Brewing Bistro,18.552237,73.803948,cafe,cafe,N/A,N/A,,food|coffee|casual|hangout,openstreetmap,12422145784,N/A,N/A,N/A,N/A,N/A,N/A,N/A,N/A,False,False,budget,Café / Coffee Shop
OPE_12843844311,Brewing Partners,18.518244,73.835718,cafe,cafe,N/A,N/A,,food|coffee|casual|hangout,openstreetmap,12843844311,N/A,N/A,N/A,coffee_shop;burger,N/A,N/A,N/A,N/A,False,False,budget,Café / Coffee Shop
OPE_359727408,Buenos Kaffe,18.566922,73.815966,cafe,cafe,"Survey no 10, Chondhe Patil Badminton Hall, Chondhe Patil Road, Near Rohan Nilay Society, Aundh, Pune, 411007",N/A,,food|coffee|casual|hangout,openstreetmap,359727408,N/A,7499903324,Mo-Su 08:00-23:00,italian;pizza;pasta;burger;sandwich;coffee_shop;chicken,N/A,N/A,N/A,N/A,False,False,budget,Café / Coffee Shop
OPE_5302827823,Bun Maska Cafe,18.474172,73.891154,cafe,cafe,N/A,N/A,,food|coffee|casual|hangout,openstreetmap,5302827823,N/A,N/A,N/A,N/A,N/A,N/A,N/A,N/A,False,False,budget,Café / Coffee Shop
OPE_9128917148,Cafe  Coffee  Day,18.521609,73.879216,cafe,cafe,N/A,N/A,,food|coffee|casual|hangout,openstreetmap,9128917148,N/A,N/A,Mo-Su 10:00-22:00,N/A,N/A,N/A,N/A,N/A,False,False,budget,Café / Coffee Shop
OPE_12794484463,Cafe A26,18.568236,73.906096,cafe,cafe,N/A,N/A,,food|coffee|casual|hangout,openstreetmap,12794484463,N/A,N/A,N/A,coffee_shop,N/A,N/A,N/A,N/A,False,False,budget,Café / Coffee Shop
OPE_5695637394,Cafe Chocolade,18.459902,73.785979,cafe,cafe,N/A,N/A,,food|coffee|casual|hangout,openstreetmap,5695637394,N/A,N/A,N/A,sandwich;coffee_shop;burger,N/A,N/A,N/A,N/A,False,False,budget,Café / Coffee Shop
OPE_674921350,Cafe Code Red,18.526295,73.887161,cafe,cafe,N/A,N/A,,food|coffee|casual|hangout,openstreetmap,674921350,N/A,N/A,N/A,N/A,N/A,N/A,N/A,N/A,False,False,budget,Café / Coffee Shop
OPE_1563305285,Cafe Cofee Day,18.508647,73.789635,cafe,cafe,N/A,N/A,,food|coffee|casual|hangout,openstreetmap,1563305285,N/A,N/A,N/A,coffee_shop,N/A,N/A,N/A,N/A,False,False,budget,Café / Coffee Shop
OPE_2185567181,Cafe Coffee Day,18.519228,73.830507,cafe,cafe,N/A,N/A,,food|coffee|casual|hangout,openstreetmap,2185567181,N/A,N/A,N/A,coffee_shop,N/A,N/A,N/A,N/A,False,False,budget,Café / Coffee Shop
OPE_2578138779,Cafe Coffee Day,18.508133,73.78282,cafe,cafe,N/A,N/A,,food|coffee|casual|hangout,openstreetmap,2578138779,N/A,N/A,N/A,coffee_shop,N/A,N/A,N/A,N/A,False,False,budget,Café / Coffee Shop
OPE_2785784969,Cafe Coffee Day,18.513701,73.815541,cafe,cafe,"MIT College Road, Rambaug Colony, Kothrud, Pune - 411038",N/A,,food|coffee|casual|hangout,openstreetmap,2785784969,N/A,N/A,N/A,coffee_shop,N/A,N/A,N/A,N/A,False,False,budget,Café / Coffee Shop
OPE_3647415344,Cafe Coffee Day,18.507969,73.831526,cafe,cafe,N/A,N/A,,food|coffee|casual|hangout,openstreetmap,3647415344,N/A,N/A,N/A,coffee_shop,N/A,N/A,N/A,N/A,False,False,budget,Café / Coffee Shop
OPE_5832220035,Cafe Coffee Day,18.50811,73.78846,cafe,cafe,N/A,N/A,,food|coffee|casual|hangout,openstreetmap,5832220035,N/A,N/A,N/A,coffee_shop,N/A,N/A,N/A,N/A,False,False,budget,Café / Coffee Shop
OPE_6130922009,Cafe Coffee Day,18.554607,73.80474,cafe,cafe,N/A,N/A,,food|coffee|casual|hangout,openstreetmap,6130922009,N/A,N/A,N/A,coffee_shop,N/A,N/A,N/A,N/A,False,False,budget,Café / Coffee Shop
OPE_6199355630,Cafe Coffee Day,18.555856,73.809409,cafe,cafe,N/A,N/A,,food|coffee|casual|hangout,openstreetmap,6199355630,N/A,N/A,N/A,coffee_shop,N/A,N/A,N/A,N/A,False,False,budget,Café / Coffee Shop
OPE_667287796,Cafe Coffee Day,18.539582,73.887042,cafe,cafe,N/A,N/A,,food|coffee|casual|hangout,openstreetmap,667287796,N/A,N/A,N/A,coffee_shop,N/A,N/A,N/A,N/A,False,False,budget,Café / Coffee Shop
OPE_2183569906,Cafe Coffee Day,18.565787,73.918066,cafe,cafe,N/A,N/A,,food|coffee|casual|hangout,openstreetmap,2183569906,N/A,N/A,N/A,coffee_shop,N/A,N/A,N/A,N/A,False,False,budget,Café / Coffee Shop
OPE_2787021729,Cafe Coffee Day,18.522171,73.841185,cafe,cafe,N/A,N/A,,food|coffee|casual|hangout,openstreetmap,2787021729,N/A,N/A,N/A,coffee_shop,N/A,N/A,N/A,N/A,False,False,budget,Café / Coffee Shop
OPE_3533206593,Cafe Coffee Day,18.5229,73.848396,cafe,cafe,N/A,N/A,,food|coffee|casual|hangout,openstreetmap,3533206593,https://www.cafecoffeeday.com/,+919326877251,Mo-Su 09:00-23:00,coffee_shop,N/A,N/A,N/A,N/A,False,False,budget,Café / Coffee Shop
OPE_3746861106,Cafe Coffee Day,18.525029,73.841687,cafe,cafe,"Gopal Krushna Gokhale Path, Pune, 411005",N/A,,food|coffee|casual|hangout,openstreetmap,3746861106,https://www.cafecoffeeday.com/,+919272200142,Mo-Su 09:00-23:00,coffee_shop,N/A,N/A,N/A,N/A,False,False,budget,Café / Coffee Shop
OPE_13140904993,Cafe Coffee Day,18.513521,73.879316,cafe,cafe,N/A,N/A,,food|coffee|casual|hangout,openstreetmap,13140904993,N/A,N/A,N/A,coffee_shop,N/A,N/A,N/A,N/A,False,False,budget,Café / Coffee Shop
OPE_1532852993,Cafe Coffee Day,18.512427,73.928539,cafe,cafe,"Magarpatta Inner Circle, Pune, 411013",N/A,,food|coffee|casual|hangout,openstreetmap,1532852993,N/A,N/A,N/A,coffee_shop,N/A,N/A,N/A,N/A,False,False,budget,Café / Coffee Shop
OPE_9128906269,Cafe Coffee Shop,18.50845,73.795336,cafe,cafe,N/A,N/A,,food|coffee|casual|hangout,openstreetmap,9128906269,N/A,N/A,Mo-Su 09:00-21:00,N/A,N/A,N/A,N/A,N/A,False,False,budget,Café / Coffee Shop
OPE_10222924239,Cafe Crush,18.444408,73.785545,cafe,cafe,"Kolhewadi Road, Pune, 411024",N/A,,food|coffee|casual|hangout,openstreetmap,10222924239,N/A,N/A,N/A,N/A,N/A,N/A,N/A,N/A,False,False,budget,Café / Coffee Shop
OPE_6258988969,Cafe Delight,18.515133,73.81543,cafe,cafe,N/A,N/A,,food|coffee|casual|hangout,openstreetmap,6258988969,N/A,N/A,N/A,N/A,N/A,N/A,N/A,N/A,False,False,budget,Café / Coffee Shop
OPE_12484083401,Cafe Dot Com,18.548737,73.768091,cafe,cafe,"Sus Road, pune, 411021",N/A,,food|coffee|casual|hangout,openstreetmap,12484083401,https://cafe.com/,6457264382,Mo-Su 09:00-21:00,pizza;burger,N/A,N/A,N/A,N/A,False,False,budget,Café / Coffee Shop
OPE_11581229791,Cafe Dum,18.52325,73.780742,cafe,cafe,N/A,N/A,,food|coffee|casual|hangout,openstreetmap,11581229791,N/A,N/A,N/A,N/A,N/A,N/A,N/A,N/A,False,False,budget,Café / Coffee Shop
OPE_2561173081,Cafe Durga,18.506024,73.817776,cafe,cafe,"Shop No -2, Sanskruti Pratibimba Apartments, Mayur Colony, Kothrud, Pune, Maharashtra 411038",N/A,,food|coffee|casual|hangout,openstreetmap,2561173081,https://durgacafe.com/,097641 42450,Mo-Su 09:00-23:00,N/A,N/A,N/A,N/A,N/A,False,False,budget,Café / Coffee Shop
OPE_2785802454,Cafe Durga,18.515505,73.815502,cafe,cafe,N/A,N/A,,food|coffee|casual|hangout,openstreetmap,2785802454,N/A,N/A,N/A,regional,N/A,N/A,N/A,N/A,False,False,budget,Café / Coffee Shop
OPE_10044086761,Cafe Durga,18.552337,73.794005,cafe,cafe,N/A,N/A,,food|coffee|casual|hangout,openstreetmap,10044086761,N/A,N/A,N/A,N/A,N/A,N/A,N/A,N/A,False,False,budget,Café / Coffee Shop
OPE_10044086791,Cafe Durga,18.555825,73.808741,cafe,cafe,N/A,N/A,,food|coffee|casual|hangout,openstreetmap,10044086791,N/A,N/A,N/A,N/A,N/A,N/A,N/A,N/A,False,False,budget,Café / Coffee Shop
OPE_10246158969,Cafe Durga,18.500302,73.740705,cafe,cafe,N/A,N/A,,food|coffee|casual|hangout,openstreetmap,10246158969,N/A,N/A,N/A,coffee_shop,N/A,N/A,N/A,N/A,False,False,budget,Café / Coffee Shop
OPE_12484073402,Cafe Durga,18.544454,73.782053,cafe,cafe,N/A,N/A,,food|coffee|casual|hangout,openstreetmap,12484073402,N/A,+91 99211 66166,Mo-Su 09:00-23:30,N/A,N/A,N/A,N/A,N/A,False,False,budget,Café / Coffee Shop
OPE_2527611870,Cafe Eastwood,18.498718,73.819327,cafe,cafe,Paschimanagari,N/A,,food|coffee|casual|hangout,openstreetmap,2527611870,N/A,N/A,Mo-Su 13:00-23:00,N/A,N/A,N/A,N/A,N/A,False,False,budget,Café / Coffee Shop
OPE_359769658,Cafe Galaxy,18.522237,73.762589,cafe,cafe,"123, Uttamnagar road, Bavdhan Budruk, 411021",N/A,,food|coffee|casual|hangout,openstreetmap,359769658,https://http//:cafegalaxy.com,+91 123 4567,Mo-Su 08:00-22:00,dessert;frozen_yogurt,N/A,N/A,N/A,N/A,False,False,budget,Café / Coffee Shop
OPE_9142494220,Cafe Grand,18.475118,73.885408,cafe,cafe,"Lane no 15, Cafe Grand, Shivneri Nagar , kondhwa, Pune, 411048",N/A,,food|coffee|casual|hangout,openstreetmap,9142494220,N/A,N/A,Mo-Sa 08:00-23:00,N/A,N/A,N/A,N/A,N/A,False,False,budget,Café / Coffee Shop
OPE_11274100323,Cafe House Of Bamboo - Hob,18.501783,73.835604,cafe,cafe,N/A,N/A,,food|coffee|casual|hangout,openstreetmap,11274100323,N/A,N/A,N/A,cafe,N/A,N/A,N/A,N/A,False,False,budget,Café / Coffee Shop
OPE_6130921997,Cafe Old Skool,18.553277,73.807513,cafe,cafe,"Shankarao Gaikwad Path, Pune, 411007",N/A,,food|coffee|casual|hangout,openstreetmap,6130921997,N/A,N/A,N/A,N/A,N/A,N/A,N/A,N/A,False,False,budget,Café / Coffee Shop
OPE_12483985301,Cafe Peiskos,18.548522,73.791046,cafe,cafe,"Baner-Pashan Link Road, 411021",N/A,,food|coffee|casual|hangout,openstreetmap,12483985301,N/A,+91 78759 29567,Mo-Su 11:00-22:30,N/A,N/A,N/A,N/A,N/A,False,False,budget,Café / Coffee Shop
OPE_3311223799,Cafe Peter,18.510525,73.781876,cafe,cafe,N/A,N/A,,food|coffee|casual|hangout,openstreetmap,3311223799,N/A,N/A,N/A,N/A,N/A,N/A,N/A,N/A,False,False,budget,Café / Coffee Shop
OPE_11323266169,Cafe Peter,18.520567,73.843876,cafe,cafe,"1206B/28, Bapusaheb Gupte Path, 411005",N/A,,food|coffee|casual|hangout,openstreetmap,11323266169,https://www.cafepeterapteroad.in/,N/A,Mo-Su 08:00-00:00,N/A,N/A,N/A,N/A,N/A,False,False,budget,Café / Coffee Shop
OPE_12609976601,Cafe Rova,18.553681,73.939838,cafe,cafe,Divine Suite,N/A,,food|coffee|casual|hangout,openstreetmap,12609976601,N/A,+919637908083,N/A,N/A,N/A,N/A,N/A,N/A,False,False,budget,Café / Coffee Shop
OPE_9174851579,Cafe Sky,18.525361,73.840319,cafe,cafe,"Fergusson college campus Rd, cannol Road 8, Pune, Maharashtra 411004",N/A,,food|coffee|casual|hangout,openstreetmap,9174851579,N/A,086002 02030,Mo-Su 10:00-22:00,N/A,N/A,N/A,N/A,N/A,False,False,budget,Café / Coffee Shop
OPE_10250076202,Cafe Starboy,18.553312,73.80718,cafe,cafe,N/A,N/A,,food|coffee|casual|hangout,openstreetmap,10250076202,N/A,N/A,N/A,N/A,N/A,N/A,N/A,N/A,False,False,budget,Café / Coffee Shop
OPE_10686342276,Caffee Delicioso,18.559732,73.781196,cafe,cafe,"Caffee Delicioso, Pride Valencia Apartment,, Pancard Club Road, Baner, Pune, 411045",N/A,,food|coffee|casual|hangout,openstreetmap,10686342276,N/A,+917507657070,24/7,coffee_shop;ice_cream;chocolate,N/A,N/A,N/A,N/A,False,True,budget,Café / Coffee Shop
OPE_2561173070,Café Coffee Day,18.500112,73.81438,cafe,cafe,N/A,N/A,,food|coffee|casual|hangout,openstreetmap,2561173070,N/A,N/A,N/A,N/A,N/A,N/A,N/A,N/A,False,False,budget,Café / Coffee Shop
OPE_4748299854,Café Coffee Day,18.50277,73.901071,cafe,cafe,"Vitthal Rao Shivarkar Marg, Pune, 411040",N/A,,food|coffee|casual|hangout,openstreetmap,4748299854,N/A,N/A,N/A,coffee_shop,N/A,N/A,N/A,N/A,False,False,budget,Café / Coffee Shop
OPE_6201856577,Café Coffee Day,18.534172,73.876554,cafe,cafe,N/A,N/A,,food|coffee|casual|hangout,openstreetmap,6201856577,N/A,N/A,N/A,N/A,N/A,N/A,N/A,N/A,False,False,budget,Café / Coffee Shop
OPE_11385548956,Café Tea One,18.466521,73.892934,cafe,cafe,"pune, 411048",N/A,,food|coffee|casual|hangout,openstreetmap,11385548956,N/A,+918855878719,Mo-Su 09:00-00:00,coffee_shop;tea;burger;sandwich;noodle,N/A,N/A,N/A,N/A,False,False,budget,Café / Coffee Shop
OPE_11422200128,Cake Carnivel,18.449434,73.838114,cafe,cafe,"Katraj Ambegaon Khurd Road, Pune, 411046",N/A,,food|coffee|casual|hangout,openstreetmap,11422200128,N/A,N/A,Mo-Su 010:00-21:00,N/A,N/A,N/A,N/A,N/A,False,False,budget,Café / Coffee Shop
OPE_1231605075,Cake Carnivel,18.449458,73.838123,cafe,cafe,"Katraj Ambegaon Khurd Road, PUNE, 411046",N/A,,food|coffee|casual|hangout,openstreetmap,1231605075,N/A,N/A,Mo-Su 08:00-22:00,N/A,N/A,N/A,N/A,N/A,False,False,budget,Café / Coffee Shop
OPE_10725596914,Captain Coffee.,18.520741,73.855768,cafe,cafe,N/A,N/A,,food|coffee|casual|hangout,openstreetmap,10725596914,N/A,N/A,N/A,coffee_shop,N/A,N/A,N/A,N/A,False,False,budget,Café / Coffee Shop
OPE_6531995651,Chafa Cafe And Studio,18.533317,73.897058,cafe,cafe,N/A,N/A,,food|coffee|casual|hangout,openstreetmap,6531995651,N/A,N/A,N/A,N/A,N/A,N/A,N/A,N/A,False,False,budget,Café / Coffee Shop
OPE_13131470128,Chaha Mi,18.555954,73.818128,cafe,cafe,N/A,N/A,,food|coffee|casual|hangout,openstreetmap,13131470128,N/A,N/A,N/A,tea,N/A,N/A,N/A,N/A,False,False,budget,Café / Coffee Shop
OPE_987626296,Chai Cafe,18.515979,73.877103,cafe,cafe,N/A,N/A,,food|coffee|casual|hangout,openstreetmap,987626296,N/A,N/A,sunrise-sunset,regional,N/A,N/A,N/A,N/A,False,False,budget,Café / Coffee Shop
OPE_11007174695,Chai High,18.465036,73.833948,cafe,cafe,"Pune, 411041",N/A,,food|coffee|casual|hangout,openstreetmap,11007174695,N/A,+919834372320,Mo-Su 08:30-23:00,tea,N/A,no,N/A,N/A,False,False,budget,Café / Coffee Shop
OPE_12484078801,Chai Katta,18.544411,73.782219,cafe,cafe,N/A,N/A,,food|coffee|casual|hangout,openstreetmap,12484078801,N/A,N/A,Mo-Su 08:00-23:00,N/A,N/A,N/A,N/A,N/A,False,False,budget,Café / Coffee Shop
OPE_12484078802,Chai Katta,18.520913,73.778957,cafe,cafe,N/A,N/A,,food|coffee|casual|hangout,openstreetmap,12484078802,N/A,N/A,Mo-Su 09:00-23:00,N/A,N/A,N/A,N/A,N/A,False,False,budget,Café / Coffee Shop
OPE_13380898046,Chai Sutta Bar,18.648258,73.84353,cafe,cafe,Spine Road,N/A,,food|coffee|casual|hangout,openstreetmap,13380898046,N/A,N/A,N/A,indian;breakfast;coffee_shop,N/A,N/A,N/A,N/A,False,False,budget,Café / Coffee Shop
OPE_9578166717,Chai Sutta Premi,18.521561,73.765468,cafe,cafe,"Uttamnagar road, Bavdhan Budruk, 411021",N/A,,food|coffee|casual|hangout,openstreetmap,9578166717,N/A,N/A,N/A,N/A,N/A,N/A,N/A,N/A,False,False,budget,Café / Coffee Shop
OPE_12383891003,Choclate Caffe,18.550351,73.883316,cafe,cafe,"haveli, Pune, 411006",N/A,,food|coffee|casual|hangout,openstreetmap,12383891003,https://http//www.com caffe,9754565476,Mo-Su 10:00-22:00,pizza;coffee_shop;burger;sandwich;mexican;sushi;ice_cream;bubble_tea;donut,N/A,N/A,N/A,N/A,False,False,budget,Café / Coffee Shop
OPE_4879927647,Chocolate Caffe,18.550336,73.883316,cafe,cafe,"Sr. No. 12, Laxminagar Yerwada, Pune, 411006",N/A,,food|coffee|casual|hangout,openstreetmap,4879927647,https://hejdhfdguh/fd/kli,8665474974,Mo-Su 10:00-22:00,all_in_caffe,N/A,N/A,N/A,N/A,False,False,budget,Café / Coffee Shop
OPE_5846549317,Chota Bite By Cafe Goodluck,18.552317,73.793829,cafe,cafe,N/A,N/A,,food|coffee|casual|hangout,openstreetmap,5846549317,N/A,N/A,N/A,N/A,N/A,N/A,N/A,N/A,False,False,budget,Café / Coffee Shop
OPE_1225125349,Coep Hostel Mess,18.527922,73.851167,cafe,cafe,N/A,N/A,,food|coffee|casual|hangout,openstreetmap,1225125349,N/A,N/A,N/A,N/A,N/A,N/A,N/A,N/A,False,False,budget,Café / Coffee Shop
OPE_4452495870,Coffee And Bread Art Cafe,18.504003,73.830819,cafe,cafe,N/A,N/A,,food|coffee|casual|hangout,openstreetmap,4452495870,N/A,N/A,N/A,N/A,N/A,N/A,N/A,N/A,False,False,budget,Café / Coffee Shop
OPE_672232247,Coffee House,18.518772,73.877244,cafe,cafe,N/A,N/A,,food|coffee|casual|hangout,openstreetmap,672232247,N/A,N/A,N/A,N/A,N/A,N/A,N/A,N/A,False,False,budget,Café / Coffee Shop
OPE_12473454970,Coffee Nation,18.522963,73.841132,cafe,cafe,N/A,N/A,,food|coffee|casual|hangout,openstreetmap,12473454970,N/A,N/A,N/A,N/A,N/A,no,N/A,N/A,False,False,budget,Café / Coffee Shop
OPE_5832220016,Coffee Republic,18.514478,73.828884,cafe,cafe,N/A,N/A,,food|coffee|casual|hangout,openstreetmap,5832220016,N/A,N/A,N/A,coffee_shop,N/A,N/A,N/A,N/A,False,False,budget,Café / Coffee Shop
OPE_6258913000,Community Cafe,18.510903,73.81554,cafe,cafe,N/A,N/A,,food|coffee|casual|hangout,openstreetmap,6258913000,N/A,N/A,Mo-Su 08:00-23:00,N/A,N/A,N/A,N/A,N/A,False,False,budget,Café / Coffee Shop
OPE_5832220017,Crazy Cheesy Cafe,18.511722,73.829308,cafe,cafe,"Shantisheela Society Lane, Law College Road, Pune, 411004",N/A,,food|coffee|casual|hangout,openstreetmap,5832220017,https://crazycheesy.in/,N/A,Mo-Su 09:00-21:00,pizza;sandwich;coffee_shop;italian,N/A,N/A,N/A,N/A,False,False,budget,Café / Coffee Shop
OPE_11581224950,Crown Bakery,18.512474,73.80894,cafe,cafe,"Rambaug Colony Road, Pune, 411038",N/A,,food|coffee|casual|hangout,openstreetmap,11581224950,N/A,N/A,Mo-Su 09:00-21:00,cake;dessert;donut,N/A,N/A,N/A,N/A,False,False,budget,Café / Coffee Shop
OPE_5815976639,De Baker'S Lounge,18.502221,73.809413,cafe,cafe,N/A,N/A,,food|coffee|casual|hangout,openstreetmap,5815976639,N/A,N/A,N/A,N/A,N/A,N/A,N/A,N/A,False,False,budget,Café / Coffee Shop
OPE_13028616259,Diamond Queen,18.51828,73.880035,cafe,cafe,"Pune, 411001",N/A,,food|coffee|casual|hangout,openstreetmap,13028616259,N/A,N/A,N/A,irani;coffee_shop,N/A,N/A,N/A,N/A,False,False,budget,Café / Coffee Shop
OPE_360512759,Durga,18.461139,73.812633,cafe,cafe,"Sinhagad Road, Dhayari, 411041",N/A,,food|coffee|casual|hangout,openstreetmap,360512759,https://www.durgacafe.com/,+91 8530084294,Mo-Su 08:00-22:00,coffee_shop;sandwich,N/A,N/A,N/A,N/A,False,False,budget,Café / Coffee Shop
OPE_1255574000,Durga Cafe,18.485012,73.816119,cafe,cafe,"Karve Nagar , Pune, 411052",N/A,,food|coffee|casual|hangout,openstreetmap,1255574000,N/A,N/A,N/A,coffee_shop,N/A,N/A,N/A,N/A,False,False,budget,Café / Coffee Shop
OPE_12176140939,Durga Cafe,18.496783,73.802281,cafe,cafe,N/A,N/A,,food|coffee|casual|hangout,openstreetmap,12176140939,N/A,N/A,Mo-Su 08:00-23:00,N/A,N/A,N/A,N/A,N/A,False,False,budget,Café / Coffee Shop
OPE_1245776667,Durga Cafe,18.551545,73.76858,cafe,cafe,"shop 13, regency orion, mohan nagar, baner, Pune, 411045",N/A,,food|coffee|casual|hangout,openstreetmap,1245776667,N/A,N/A,Mo-Su 09:00-21:00,coffee_shop;indian,N/A,N/A,N/A,N/A,False,False,budget,Café / Coffee Shop
OPE_13619843070,Durga Cafe,18.534983,73.880604,cafe,cafe,"Bund Garden Road, Pune, 411001",N/A,,food|coffee|casual|hangout,openstreetmap,13619843070,N/A,N/A,N/A,coffee_shop;chinese;south_indian,N/A,yes,N/A,N/A,False,False,budget,Café / Coffee Shop
OPE_13368704877,Engineers Cafe,18.44083,73.83979,cafe,cafe,N/A,N/A,,food|coffee|casual|hangout,openstreetmap,13368704877,N/A,N/A,24/7,N/A,N/A,N/A,N/A,N/A,False,True,budget,Café / Coffee Shop
OPE_359911411,Evara Cafe,18.522292,73.779343,cafe,cafe,"shop no.2, Pashan-Bavdhan Road, Bavdhan, Pune, 411021",N/A,,food|coffee|casual|hangout,openstreetmap,359911411,https://evaracafe.com,+91 786029934,Mo-Su 10:00-22:00,burger;pizza;coffee_shop;chicken;sandwich;italian;tea;fries;noodle;salad;pasta;brunch;bistro,N/A,N/A,N/A,N/A,False,False,budget,Café / Coffee Shop
OPE_13506380194,Fat Labrador,18.520584,73.776082,cafe,cafe,"bavdhan, DSK Ranwara road, Bavdhan, Pune, 411021",N/A,,food|coffee|casual|hangout,openstreetmap,13506380194,N/A,N/A,N/A,burger;bavdhan,N/A,N/A,N/A,N/A,False,False,budget,Café / Coffee Shop
OPE_10248838452,Fat Labrador Cafe,18.520606,73.776143,cafe,cafe,"bavdhan, DSK Ranwara road, Bavdhan, Pune",N/A,,food|coffee|casual|hangout,openstreetmap,10248838452,N/A,N/A,N/A,pizza;burger;italian;coffee_shop,N/A,N/A,N/A,N/A,False,False,budget,Café / Coffee Shop
OPE_13506380193,Fat Labrador Cafe,18.520554,73.776028,cafe,cafe,N/A,N/A,,food|coffee|casual|hangout,openstreetmap,13506380193,N/A,N/A,N/A,N/A,N/A,N/A,N/A,N/A,False,False,budget,Café / Coffee Shop
OPE_13506370565,Fat Labradour Cafe,18.520383,73.775674,cafe,cafe,"bavdhan, DSK Ranwara road, Bavdhan, Pune",N/A,,food|coffee|casual|hangout,openstreetmap,13506370565,N/A,N/A,Mo-Su 10:00am-11:00pm,coffee_shop;pizza;italian,N/A,N/A,N/A,N/A,False,False,budget,Café / Coffee Shop
OPE_7177165876,Fit & Fat Bistro,18.565307,73.801293,cafe,cafe,"Shop No. C-4, Sai Heritage, Pune, 411007",N/A,,food|coffee|casual|hangout,openstreetmap,7177165876,N/A,N/A,N/A,sandwich;coffee;coffee_shop,N/A,N/A,N/A,N/A,False,False,budget,Café / Coffee Shop
OPE_3837531767,Floyds 23,18.519071,73.845244,cafe,cafe,N/A,N/A,,food|coffee|casual|hangout,openstreetmap,3837531767,N/A,N/A,N/A,N/A,N/A,N/A,N/A,N/A,False,False,budget,Café / Coffee Shop
OPE_10117689099,Forennté Patisserie,18.536442,73.899352,cafe,cafe,N/A,N/A,,food|coffee|casual|hangout,openstreetmap,10117689099,N/A,N/A,N/A,cake;pastry;coffee,N/A,N/A,N/A,N/A,False,False,budget,Café / Coffee Shop
OPE_9502917899,Friends,18.499325,73.847732,cafe,cafe,"Laxminagar Road, pune, 411009",N/A,,food|coffee|casual|hangout,openstreetmap,9502917899,N/A,7721839961,Mo-Sa 08:00-18:00,coffee_shop,N/A,N/A,N/A,N/A,False,False,budget,Café / Coffee Shop
OPE_11581229793,Frozen Bottle,18.523134,73.780299,cafe,cafe,N/A,N/A,,food|coffee|casual|hangout,openstreetmap,11581229793,N/A,N/A,N/A,milkshake;ice_cream,N/A,N/A,N/A,N/A,False,False,budget,Café / Coffee Shop
OPE_5819803195,German Bakery,18.519922,73.830616,cafe,cafe,"Law College Road, 411004",N/A,,food|coffee|casual|hangout,openstreetmap,5819803195,N/A,N/A,N/A,N/A,N/A,N/A,N/A,N/A,False,False,budget,Café / Coffee Shop
OPE_313785040,German Bakery,18.539623,73.887371,cafe,cafe,"Koregaon Park, Pune",N/A,,food|coffee|casual|hangout,openstreetmap,313785040,N/A,N/A,N/A,N/A,N/A,N/A,N/A,N/A,False,False,budget,Café / Coffee Shop
OPE_13478636318,Good Luck Cafe,18.516853,73.781594,cafe,cafe,"Shop no.2, Swami, NDA Pashan Rd, Bavdhan, Pune, 411021",N/A,,food|coffee|casual|hangout,openstreetmap,13478636318,https://goodluckcafe.com,091754 46609,Mo-Su 07:00-22:00,pizza;coffee_shop;burger;indian;breakfast;tea;juice;brunch;fries;sandwich;chicken,N/A,N/A,N/A,N/A,False,False,budget,Café / Coffee Shop
OPE_11330878772,Goodluck Cafe,18.469975,73.82323,cafe,cafe,"Goel Ganga road, Pune, 411051",N/A,,food|coffee|casual|hangout,openstreetmap,11330878772,N/A,N/A,N/A,N/A,N/A,N/A,N/A,N/A,False,False,budget,Café / Coffee Shop
OPE_12484089402,Goodluck Cafe,18.516814,73.781562,cafe,cafe,N/A,N/A,,food|coffee|casual|hangout,openstreetmap,12484089402,N/A,N/A,Mo-Su 08:00-23:00,N/A,N/A,N/A,N/A,N/A,False,False,budget,Café / Coffee Shop
OPE_11726905574,Grandmama'S Cafe,18.532968,73.897863,cafe,cafe,N/A,N/A,,food|coffee|casual|hangout,openstreetmap,11726905574,N/A,07420060448,N/A,N/A,N/A,N/A,N/A,N/A,False,False,budget,Café / Coffee Shop
OPE_10158935918,Grey Soul,18.537488,73.89884,cafe,cafe,N/A,N/A,,food|coffee|casual|hangout,openstreetmap,10158935918,N/A,N/A,N/A,N/A,N/A,N/A,N/A,N/A,False,False,budget,Café / Coffee Shop
OPE_6188204787,"Grish(Lassi,Kulfi)",18.526777,73.87288,cafe,ice_cream,N/A,N/A,,food|coffee|casual|hangout,openstreetmap,6188204787,N/A,9850718033,N/A,N/A,N/A,N/A,N/A,N/A,False,False,budget,Café / Coffee Shop
OPE_763545776,Grubshup,18.510852,73.829893,cafe,cafe,N/A,N/A,,food|coffee|casual|hangout,openstreetmap,763545776,N/A,N/A,N/A,indian,N/A,N/A,N/A,N/A,False,False,budget,Café / Coffee Shop
OPE_6258899893,Guptaji Tasty Bites,18.515453,73.815799,cafe,cafe,N/A,N/A,,food|coffee|casual|hangout,openstreetmap,6258899893,N/A,N/A,N/A,N/A,N/A,N/A,N/A,N/A,False,False,budget,Café / Coffee Shop
OPE_9128835091,Habibi Cafe,18.589898,73.863718,cafe,cafe,N/A,N/A,,food|coffee|casual|hangout,openstreetmap,9128835091,N/A,N/A,Mo-Su 09:00-21:00,coffee_shop,N/A,N/A,N/A,N/A,False,False,budget,Café / Coffee Shop
OPE_4452486687,Himali Canteen,18.503351,73.832397,cafe,cafe,N/A,N/A,,food|coffee|casual|hangout,openstreetmap,4452486687,N/A,N/A,N/A,N/A,N/A,N/A,N/A,N/A,False,False,budget,Café / Coffee Shop
OPE_13619790667,Hotbox Corner,18.548554,73.87861,cafe,cafe,N/A,N/A,,food|coffee|casual|hangout,openstreetmap,13619790667,N/A,N/A,N/A,pizza;burger;coffee_shop,N/A,limited,N/A,N/A,False,False,budget,Café / Coffee Shop
OPE_10581996868,Hotel Jay Malhar,18.463739,73.978932,cafe,cafe,"Wadki Road, Fursungi, Pune, 412308",N/A,,food|coffee|casual|hangout,openstreetmap,10581996868,N/A,N/A,N/A,N/A,N/A,N/A,N/A,N/A,False,False,budget,Café / Coffee Shop
OPE_11913222306,Hotel Ratna,18.544008,73.838555,cafe,cafe,N/A,N/A,,food|coffee|casual|hangout,openstreetmap,11913222306,N/A,N/A,N/A,N/A,N/A,N/A,N/A,N/A,False,False,budget,Café / Coffee Shop
OPE_6849362802,Hug My Mug,18.540993,73.887464,cafe,cafe,N/A,N/A,,food|coffee|casual|hangout,openstreetmap,6849362802,N/A,N/A,N/A,N/A,N/A,N/A,N/A,N/A,False,False,budget,Café / Coffee Shop
OPE_870193119,Iceberg,18.53152,73.831723,cafe,cafe,N/A,N/A,,food|coffee|casual|hangout,openstreetmap,870193119,N/A,N/A,N/A,N/A,N/A,N/A,N/A,N/A,False,False,budget,Café / Coffee Shop
OPE_1275526417,Indrayani Chaha,18.584073,73.999381,cafe,cafe,"Indrayani Chaha, Front Of Reliance Smart Point, IVY ESTATE, Ivy Estate Rd,, Wagholi, Pune, Maharashtra, 412207",N/A,,food|coffee|casual|hangout,openstreetmap,1275526417,N/A,N/A,N/A,N/A,N/A,N/A,N/A,N/A,False,False,budget,Café / Coffee Shop
OPE_5257379321,Internet Café Global,18.526446,73.842024,cafe,internet_cafe,N/A,N/A,,food|coffee|casual|hangout,openstreetmap,5257379321,N/A,N/A,N/A,N/A,N/A,N/A,N/A,N/A,False,False,budget,Café / Coffee Shop
OPE_12484094602,Irani Cafe,18.50795,73.783028,cafe,cafe,N/A,N/A,,food|coffee|casual|hangout,openstreetmap,12484094602,N/A,N/A,N/A,N/A,N/A,N/A,N/A,N/A,False,False,budget,Café / Coffee Shop
OPE_9278151721,Irani Cafe,18.514055,73.837577,cafe,cafe,"Cornerstone Premises, Deccan Gymkhana, Prabhat Rd, beside Shri Mahila Griha Udyog Lijjat Papad Factory, Papad, Pune, Maharashtra 411004",N/A,,food|coffee|casual|hangout,openstreetmap,9278151721,https://iranicafe.in,07420016286,Mo-Su 07:00-22:00,N/A,N/A,N/A,N/A,N/A,False,False,budget,Café / Coffee Shop
OPE_359570381,Irani Chai,18.564946,73.807872,cafe,cafe,N/A,N/A,,food|coffee|casual|hangout,openstreetmap,359570381,N/A,N/A,N/A,fast_food,N/A,N/A,N/A,N/A,False,False,budget,Café / Coffee Shop
OPE_10241751327,It'S Street Coffee,18.51107,73.815449,cafe,cafe,"Rambaug Colony Road, Pune, 411038",N/A,,food|coffee|casual|hangout,openstreetmap,10241751327,N/A,N/A,N/A,coffee_shop,N/A,N/A,N/A,N/A,False,False,budget,Café / Coffee Shop
OPE_13305747443,Jijai Coffee House,18.507883,73.772361,cafe,cafe,"Shop no 6, Mantri Lavendula, Paud Road, Pune",N/A,,food|coffee|casual|hangout,openstreetmap,13305747443,N/A,9850982119,24/7,coffee_shop;sandwich,N/A,N/A,N/A,N/A,False,True,budget,Café / Coffee Shop
OPE_4520464891,Jivan,18.524367,73.843696,cafe,cafe,N/A,N/A,,food|coffee|casual|hangout,openstreetmap,4520464891,N/A,N/A,N/A,N/A,N/A,N/A,N/A,N/A,False,False,budget,Café / Coffee Shop
OPE_9168944791,Joshi Wadewaale,18.603931,73.909905,cafe,cafe,"281, Prwal Road, Pune, 411047",N/A,,food|coffee|casual|hangout,openstreetmap,9168944791,N/A,N/A,Mo-Su 10:00-21:00,indian,N/A,N/A,N/A,N/A,False,False,budget,Café / Coffee Shop
OPE_1243064186,Judicial Canteen,18.524316,73.873222,cafe,cafe,N/A,N/A,,food|coffee|casual|hangout,openstreetmap,1243064186,N/A,N/A,N/A,N/A,N/A,N/A,N/A,N/A,False,False,budget,Café / Coffee Shop
OPE_3710571734,Jumboking Vada Pav,18.516079,73.842796,cafe,cafe,N/A,N/A,,food|coffee|casual|hangout,openstreetmap,3710571734,N/A,N/A,N/A,N/A,N/A,N/A,N/A,N/A,False,False,budget,Café / Coffee Shop
OPE_11576645324,K.K'S Cafe,18.555327,73.764118,cafe,cafe,"Shop No.14, Treza Business Hub, Western Hills Rd, Pune, 411021",N/A,,food|coffee|casual|hangout,openstreetmap,11576645324,N/A,N/A,Mo-Su 10:00-23:00,pizza;burger;sandwich;chicken;coffee_shop;mexican;ice_cream;pasta;breakfast;fries;brunch,N/A,N/A,N/A,N/A,False,False,budget,Café / Coffee Shop
OPE_4084794551,Kailash Cold Drink House,18.511471,73.878123,cafe,cafe,N/A,N/A,,food|coffee|casual|hangout,openstreetmap,4084794551,N/A,N/A,N/A,N/A,N/A,N/A,N/A,N/A,False,False,budget,Café / Coffee Shop
OPE_11687965795,Kaka Halwai,18.531018,73.950184,cafe,cafe,N/A,N/A,,food|coffee|casual|hangout,openstreetmap,11687965795,N/A,N/A,N/A,N/A,N/A,N/A,N/A,N/A,False,False,budget,Café / Coffee Shop
OPE_9485510091,Kannu Ki Chai,18.479329,73.901467,cafe,cafe,N/A,N/A,,food|coffee|casual|hangout,openstreetmap,9485510091,N/A,N/A,Mo-Su 07:00-23:00,N/A,N/A,N/A,N/A,N/A,False,False,budget,Café / Coffee Shop
OPE_12372950601,Kannu Ki Chai,18.553159,73.948457,cafe,cafe,"2, EON IT free Zone, 411014",N/A,,food|coffee|casual|hangout,openstreetmap,12372950601,N/A,N/A,N/A,N/A,N/A,N/A,N/A,N/A,False,False,budget,Café / Coffee Shop
OPE_13650002282,Kapila Chart Corner,18.534086,73.876567,cafe,cafe,N/A,N/A,,food|coffee|casual|hangout,openstreetmap,13650002282,N/A,N/A,N/A,N/A,N/A,N/A,N/A,N/A,False,False,budget,Café / Coffee Shop
OPE_6250078437,Kathaa,18.52082,73.840501,cafe,cafe,N/A,N/A,,food|coffee|casual|hangout,openstreetmap,6250078437,N/A,N/A,N/A,N/A,N/A,N/A,N/A,N/A,False,False,budget,Café / Coffee Shop
OPE_4520491891,Kedar,18.522174,73.844386,cafe,cafe,N/A,N/A,,food|coffee|casual|hangout,openstreetmap,4520491891,N/A,N/A,N/A,N/A,N/A,N/A,N/A,N/A,False,False,budget,Café / Coffee Shop
OPE_5112319521,Khatri Bandhu Ice Cream,18.515411,73.849931,cafe,ice_cream,N/A,N/A,,food|coffee|casual|hangout,openstreetmap,5112319521,N/A,N/A,N/A,N/A,N/A,N/A,N/A,N/A,False,False,budget,Café / Coffee Shop
OPE_10115879748,Khatri Bandhu Pot Ice Cream And Mastani,18.447263,73.809409,cafe,ice_cream,"DSK Vishwa Road, Pune, 411041",N/A,,food|coffee|casual|hangout,openstreetmap,10115879748,N/A,09422170870,N/A,N/A,N/A,N/A,N/A,N/A,False,False,budget,Café / Coffee Shop
OPE_10222807377,Khatri Bandhu Pot Ice Cream And Mastani,18.511667,73.774526,cafe,ice_cream,"Lane 2, Bavdhan, Pune, 411021",N/A,,food|coffee|casual|hangout,openstreetmap,10222807377,N/A,N/A,N/A,N/A,N/A,N/A,N/A,N/A,False,False,budget,Café / Coffee Shop
OPE_10796223282,Kiosk Kaffee,18.560567,73.805001,cafe,cafe,"Ramchandra Gayakwad Path, Pune",N/A,,food|coffee|casual|hangout,openstreetmap,10796223282,N/A,N/A,N/A,N/A,N/A,N/A,N/A,N/A,False,False,budget,Café / Coffee Shop
OPE_2183488938,Kollage Food Court,18.513882,73.828579,cafe,cafe,N/A,N/A,,food|coffee|casual|hangout,openstreetmap,2183488938,N/A,N/A,N/A,N/A,N/A,N/A,N/A,N/A,False,False,budget,Café / Coffee Shop
OPE_3488367794,Le Plaisir,18.51814,73.838093,cafe,cafe,N/A,N/A,,food|coffee|casual|hangout,openstreetmap,3488367794,N/A,N/A,N/A,coffee_shop,N/A,N/A,N/A,N/A,False,False,budget,Café / Coffee Shop
OPE_4610141290,Madhav Thali,18.527612,73.873288,cafe,cafe,N/A,N/A,,food|coffee|casual|hangout,openstreetmap,4610141290,N/A,N/A,N/A,N/A,N/A,N/A,N/A,N/A,False,False,budget,Café / Coffee Shop
OPE_11546228263,Madras Cafe,18.565367,73.80051,cafe,cafe,N/A,N/A,,food|coffee|casual|hangout,openstreetmap,11546228263,N/A,N/A,N/A,N/A,N/A,N/A,N/A,N/A,False,False,budget,Café / Coffee Shop
OPE_9263465723,Marshall'S Book Cafe,18.563562,73.812309,cafe,cafe,"Aundh Opposite Pandit Bheemsen Joshi Auditorium, near PMRDA Office, Bremen Chowk, Pune, Maharashtra 411067",N/A,,food|coffee|casual|hangout,openstreetmap,9263465723,N/A,096376 51304,Mo-Su 11:30-22:00,coffee_shop;sandwich;juice,N/A,N/A,N/A,N/A,False,False,budget,Café / Coffee Shop
OPE_10219123485,Marvel Feria,18.58259,73.970286,cafe,cafe,N/A,N/A,,food|coffee|casual|hangout,openstreetmap,10219123485,N/A,N/A,N/A,N/A,N/A,N/A,N/A,N/A,False,False,budget,Café / Coffee Shop
OPE_671455417,Marz-O-Rin,18.516511,73.879085,cafe,cafe,N/A,N/A,,food|coffee|casual|hangout,openstreetmap,671455417,N/A,N/A,N/A,N/A,N/A,N/A,N/A,N/A,False,False,budget,Café / Coffee Shop
OPE_10172982151,Microbiology Canteen,18.548178,73.831782,cafe,cafe,N/A,N/A,,food|coffee|casual|hangout,openstreetmap,10172982151,N/A,N/A,N/A,N/A,N/A,N/A,N/A,N/A,False,False,budget,Café / Coffee Shop
OPE_9128878535,Mochi Cafe,18.522962,73.863864,cafe,cafe,N/A,N/A,,food|coffee|casual|hangout,openstreetmap,9128878535,N/A,N/A,Mo-Sa 08:00-18:00,N/A,N/A,N/A,N/A,N/A,False,False,budget,Café / Coffee Shop
OPE_2787982835,Mr. Gelato,18.503399,73.819448,cafe,cafe,"Karve Road, Pune, 411038",N/A,,food|coffee|casual|hangout,openstreetmap,2787982835,N/A,N/A,N/A,ice_cream,N/A,N/A,N/A,N/A,False,False,budget,Café / Coffee Shop
OPE_13598173711,Namaste Chai,18.558244,73.792715,cafe,cafe,N/A,N/A,,food|coffee|casual|hangout,openstreetmap,13598173711,N/A,N/A,N/A,N/A,N/A,N/A,N/A,N/A,False,False,budget,Café / Coffee Shop
OPE_6984014250,National Cafe,18.460384,73.823951,cafe,cafe,N/A,N/A,,food|coffee|casual|hangout,openstreetmap,6984014250,N/A,N/A,N/A,N/A,N/A,N/A,N/A,N/A,False,False,budget,Café / Coffee Shop
OPE_3206108645,Naturals,18.556277,73.808953,cafe,ice_cream,"Ozone Mall, Anand Park, ITI Road, Pune, 411007",N/A,,food|coffee|casual|hangout,openstreetmap,3206108645,N/A,+91 84519 01492,Mo-Su 10:00-22:00,ice_cream,"Founded in 1984, an informal café chain whipping up natural and fruity ice creams.",N/A,N/A,N/A,False,False,budget,Café / Coffee Shop
OPE_2273970852,Naturals,18.523168,73.847594,cafe,ice_cream,N/A,N/A,,food|coffee|casual|hangout,openstreetmap,2273970852,N/A,N/A,N/A,ice_cream,N/A,N/A,N/A,N/A,False,False,budget,Café / Coffee Shop
OPE_9473215073,Naturals Ice Cream,18.514165,73.782266,cafe,ice_cream,"Pashan-Bavdhan Road, Pune, 411021",N/A,,food|coffee|casual|hangout,openstreetmap,9473215073,N/A,N/A,N/A,N/A,N/A,N/A,N/A,N/A,False,False,budget,Café / Coffee Shop
OPE_2784754469,Naturals Icecream - Kothrud,18.502392,73.815789,cafe,ice_cream,"Rangali Society , shop no 1, Karve Road, Near Karve Putla, next to Sheetal Restaurant, Kothrud, Pune, Maharashtra 411038, Pune, 411029",N/A,,food|coffee|casual|hangout,openstreetmap,2784754469,https://naturalicecreams.in/,091750 11819,Mo-Su 10:00-00:00,ice_cream,"Founded in 1984, an informal café chain whipping up natural and fruity ice creams.",N/A,N/A,N/A,False,False,budget,Café / Coffee Shop
OPE_10117710443,Naughty Angel Cafe,18.536462,73.899591,cafe,cafe,N/A,N/A,,food|coffee|casual|hangout,openstreetmap,10117710443,N/A,N/A,N/A,italian,N/A,N/A,N/A,N/A,False,False,budget,Café / Coffee Shop
OPE_360291912,Neha Cafe,18.469321,73.831476,cafe,cafe,"1, Sahakarnagar, pune, 411043",N/A,,food|coffee|casual|hangout,openstreetmap,360291912,N/A,N/A,Mo-Fr 09:00-17:00,coffee_shop,N/A,N/A,N/A,N/A,False,False,budget,Café / Coffee Shop
OPE_10313160450,Neha Cafe,18.489244,73.848453,cafe,cafe,"laxmi road, Golwalkar Guruji Path, Pune, 411009",N/A,,food|coffee|casual|hangout,openstreetmap,10313160450,N/A,9547516565,Mo-Su 09:00-21:00,pizza;burger;chinese;mexican,N/A,N/A,N/A,N/A,False,False,budget,Café / Coffee Shop
OPE_9106176612,Neha Music Studios,18.498741,73.838279,cafe,cafe,"D2, Lions Club Road, Dattawadi, Pune, 411030",N/A,,food|coffee|casual|hangout,openstreetmap,9106176612,https://g.page/r/CZqe4KbZGL2aEAE?gm,9049464234,Mo-Sa 08:00-18:00,N/A,N/A,N/A,N/A,N/A,False,False,budget,Café / Coffee Shop
OPE_9247492749,Neha'S Cafe,18.489712,73.849935,cafe,cafe,"Parvati Sahakar Nagar, Vrindavan Society, Sivadarshan Poorgrasta Vasahat, Parvati Paytha, Pune, Maharashtra 411009",N/A,,food|coffee|casual|hangout,openstreetmap,9247492749,N/A,090287 38585,Mo-Su 10:00-23:45,N/A,N/A,N/A,N/A,N/A,False,False,budget,Café / Coffee Shop
OPE_6130921999,Nosh Cafe And Kichen,18.553307,73.807381,cafe,cafe,"Shankarao Gaikwad Path, Pune, 411007",N/A,,food|coffee|casual|hangout,openstreetmap,6130921999,N/A,N/A,N/A,N/A,N/A,N/A,N/A,N/A,False,False,budget,Café / Coffee Shop
OPE_12894312494,Old Soul Vintage Cafe,18.573169,73.982603,cafe,cafe,"123, Near G.H.Raisoni College Of Engineering And Management Wagholi Pune, pune, 412207",N/A,,food|coffee|casual|hangout,openstreetmap,12894312494,N/A,N/A,N/A,coffee_shop;pizza;burger;sandwich;indian,N/A,N/A,N/A,N/A,False,False,budget,Café / Coffee Shop
OPE_9128852308,Omkar Cafe,18.47138,73.887929,cafe,cafe,"123, Kondhwa Road, Pune, 411048",N/A,,food|coffee|casual|hangout,openstreetmap,9128852308,N/A,N/A,Mo-Su 09:00-21:00,pizza,N/A,N/A,N/A,N/A,False,False,budget,Café / Coffee Shop
OPE_11680933086,One8 Commune,18.532402,73.87084,cafe,cafe,N/A,N/A,,food|coffee|casual|hangout,openstreetmap,11680933086,N/A,N/A,N/A,italian;burger;regional;international,N/A,N/A,N/A,N/A,False,False,budget,Café / Coffee Shop
OPE_709192752,Pablo'S Pizza,18.565693,73.776235,cafe,cafe,"Balewadi High Street, Pune, 411045",N/A,,food|coffee|casual|hangout,openstreetmap,709192752,N/A,N/A,Mo-Su 08:00-22:00,italian;french,N/A,N/A,N/A,N/A,False,False,budget,Café / Coffee Shop
OPE_3987038638,Pagdandi Cafe,18.552322,73.793164,cafe,cafe,"Baner-Pashan Link Road, Pune, 411021",N/A,,food|coffee|casual|hangout,openstreetmap,3987038638,https://pagdandi.org/,8788990609,Tu-Su 10:00-8:00,coffee_shop;sandwich;korean;burger;chicken,N/A,N/A,N/A,N/A,False,False,budget,Café / Coffee Shop
OPE_12484059101,Pan India Eatery,18.552236,73.792923,cafe,cafe,"Baner-Pashan Link Road, Pune, 411021",N/A,,food|coffee|casual|hangout,openstreetmap,12484059101,N/A,+91 74474 50011,Mo-Su 12:00-23:00,pizza;coffee_shop;chinese,N/A,N/A,N/A,N/A,False,False,budget,Café / Coffee Shop
OPE_865812384,Pastry Corner,18.508811,73.830399,cafe,cafe,N/A,N/A,,food|coffee|casual|hangout,openstreetmap,865812384,N/A,N/A,N/A,N/A,N/A,N/A,N/A,N/A,False,False,budget,Café / Coffee Shop
OPE_1768859199,Pesto Pesto,18.538148,73.906898,cafe,cafe,N/A,N/A,,food|coffee|casual|hangout,openstreetmap,1768859199,N/A,N/A,Mo-Su 09:00-23:00,N/A,N/A,N/A,N/A,N/A,False,False,budget,Café / Coffee Shop
OPE_9314683517,Peter Cafe,18.476929,73.910768,cafe,cafe,"Ganga kingston, NIBM Road, pune, 411060",N/A,,food|coffee|casual|hangout,openstreetmap,9314683517,N/A,1456432564,Mo-Su 09:00-21:00,ice_cream;pizza;italian;coffee_shop;indian,N/A,N/A,N/A,N/A,False,False,budget,Café / Coffee Shop
OPE_9314632673,Pizza Hut,18.513982,73.901171,cafe,cafe,N/A,N/A,,food|coffee|casual|hangout,openstreetmap,9314632673,N/A,1109876991,Mo-Su 11:00-23:00,italian;sandwich;ice_cream;chinese,N/A,N/A,N/A,N/A,False,False,budget,Café / Coffee Shop
OPE_4614416936,Points Cafe,18.425332,73.757636,cafe,cafe,N/A,N/A,,food|coffee|casual|hangout,openstreetmap,4614416936,N/A,N/A,N/A,N/A,N/A,N/A,N/A,N/A,False,False,budget,Café / Coffee Shop
OPE_12206652865,Police Station Tea Stall,18.546175,73.826486,cafe,cafe,"chaturshrungi police station, Pune, 411007",N/A,,food|coffee|casual|hangout,openstreetmap,12206652865,N/A,N/A,N/A,tea,N/A,N/A,N/A,N/A,False,False,budget,Café / Coffee Shop
OPE_5773606803,Polka Dots,18.562401,73.806953,cafe,cafe,"Westend Mall, Mahadji Shinde Marg, Pune, 411007",N/A,,food|coffee|casual|hangout,openstreetmap,5773606803,N/A,+91 7447 766 365+91 7447 770 303,"PH,Mo-Su 11:00-23:00",N/A,N/A,N/A,N/A,N/A,False,False,budget,Café / Coffee Shop
OPE_9576768842,Radhe Radhe Snacks,18.522233,73.764454,cafe,cafe,"Uttamnagar road, Bavdhan Budruk, 411021",N/A,,food|coffee|casual|hangout,openstreetmap,9576768842,N/A,N/A,N/A,N/A,N/A,N/A,N/A,N/A,False,False,budget,Café / Coffee Shop
OPE_5815976642,Rajmandir,18.501806,73.809313,cafe,ice_cream,N/A,N/A,,food|coffee|casual|hangout,openstreetmap,5815976642,N/A,N/A,N/A,N/A,N/A,N/A,N/A,N/A,False,False,budget,Café / Coffee Shop
OPE_11363285157,Rajmandir,18.523123,73.84767,cafe,ice_cream,N/A,N/A,,food|coffee|casual|hangout,openstreetmap,11363285157,N/A,N/A,N/A,N/A,N/A,N/A,N/A,N/A,False,False,budget,Café / Coffee Shop
OPE_360498590,Rajmandir Ice-Cream,18.455762,73.853629,cafe,ice_cream,"Khashaba Jadhav Path, Pune, 411046",N/A,,food|coffee|casual|hangout,openstreetmap,360498590,N/A,N/A,Mo-Su 08:00-22:00,N/A,N/A,N/A,N/A,N/A,False,False,budget,Café / Coffee Shop
OPE_8282902933,Red Coffee Shop,18.581845,73.872797,cafe,cafe,"Kalas Area, Kalas, Pune, 411015",N/A,,food|coffee|casual|hangout,openstreetmap,8282902933,https://https//redcoffee.com,N/A,Mo-Sa 08:00-18:00,coffee_shop,N/A,N/A,N/A,N/A,False,False,budget,Café / Coffee Shop
OPE_360234234,Red Moon Cafe,18.532458,73.834076,cafe,cafe,"23, Bharatiya Vidyabhavan Marg, Pune, 411016",N/A,,food|coffee|casual|hangout,openstreetmap,360234234,N/A,N/A,Mo-Fr 08:00-17:00,coffee_shop,N/A,N/A,N/A,N/A,False,False,budget,Café / Coffee Shop
OPE_12101659688,Revive Social Rooftop Cafe & Lounge,18.560427,73.808052,cafe,cafe,"Rooftop, Raviraj Society, D.P Road, Parihar Chowk, Near Westend Mall, Ramchandra Gayakwad Path, Aundh, Pune, 411007",N/A,,food|coffee|casual|hangout,openstreetmap,12101659688,https://revivesocial.in,+918668564552,Mo-Su 09:00-23:00,pizza;coffee_shop;burger;italian;sandwich;pasta,N/A,N/A,N/A,N/A,False,False,budget,Café / Coffee Shop
OPE_365464561,Richie,18.505282,73.792569,cafe,cafe,"DP Road, pune, 411038",N/A,,food|coffee|casual|hangout,openstreetmap,365464561,N/A,N/A,Mo-Su 08:00-22:00,mexican;vietnamese,N/A,N/A,N/A,N/A,False,False,budget,Café / Coffee Shop
OPE_359924586,Rihla,18.563212,73.777011,cafe,cafe,N/A,N/A,,food|coffee|casual|hangout,openstreetmap,359924586,N/A,N/A,N/A,N/A,N/A,N/A,N/A,N/A,False,False,budget,Café / Coffee Shop
OPE_13380381005,Rock  On Kufi King,18.579807,73.87356,cafe,ice_cream,"kalas vishrantwadi, Pune, 411015",N/A,,food|coffee|casual|hangout,openstreetmap,13380381005,N/A,N/A,Mo-Su 10:00-22:00,N/A,N/A,N/A,N/A,N/A,False,False,budget,Café / Coffee Shop
OPE_5832548499,Rohit Coffee Corner,18.509507,73.846817,cafe,cafe,N/A,N/A,,food|coffee|casual|hangout,openstreetmap,5832548499,N/A,N/A,N/A,N/A,N/A,N/A,N/A,N/A,False,False,budget,Café / Coffee Shop
OPE_10044086762,Rolls Mania,18.552283,73.793998,cafe,cafe,N/A,N/A,,food|coffee|casual|hangout,openstreetmap,10044086762,N/A,N/A,N/A,N/A,N/A,N/A,N/A,N/A,False,False,budget,Café / Coffee Shop
OPE_6145441650,Royal Net Café,18.504275,73.820838,cafe,internet_cafe,N/A,N/A,,food|coffee|casual|hangout,openstreetmap,6145441650,N/A,N/A,N/A,N/A,N/A,N/A,N/A,N/A,False,False,budget,Café / Coffee Shop
OPE_5713386202,Sadguru Snacks & Catering,18.493851,73.825703,cafe,cafe,"Shop No. 1, 411052",N/A,,food|coffee|casual|hangout,openstreetmap,5713386202,N/A,N/A,N/A,N/A,N/A,N/A,N/A,N/A,False,False,budget,Café / Coffee Shop
OPE_4532109492,Sahara,18.424502,73.766422,cafe,cafe,N/A,N/A,,food|coffee|casual|hangout,openstreetmap,4532109492,N/A,N/A,N/A,N/A,N/A,N/A,N/A,N/A,False,False,budget,Café / Coffee Shop
OPE_12222103734,Sai Sudarshan Ice Gola,18.446959,73.803667,cafe,ice_cream,"DSK Vishwa Road, Pune, 411041",N/A,,food|coffee|casual|hangout,openstreetmap,12222103734,N/A,N/A,N/A,N/A,N/A,N/A,N/A,N/A,False,False,budget,Café / Coffee Shop
OPE_10117678997,Sammey'S,18.53645,73.899649,cafe,ice_cream,N/A,N/A,,food|coffee|casual|hangout,openstreetmap,10117678997,N/A,N/A,N/A,N/A,N/A,N/A,N/A,N/A,False,False,budget,Café / Coffee Shop
OPE_9580154852,Sarkar Special,18.520319,73.76666,cafe,cafe,"Uttamnagar road, Bavdhan Budruk, 411021",N/A,,food|coffee|casual|hangout,openstreetmap,9580154852,N/A,N/A,N/A,N/A,N/A,N/A,N/A,N/A,False,False,budget,Café / Coffee Shop
OPE_12770261255,Satva Coffe,18.564386,73.779105,cafe,cafe,N/A,N/A,,food|coffee|casual|hangout,openstreetmap,12770261255,N/A,N/A,N/A,N/A,N/A,N/A,N/A,N/A,False,False,budget,Café / Coffee Shop
OPE_3986715072,Sd Cafe,18.544007,73.781749,cafe,cafe,"Pashan-Sus Road, Pune, 411021",N/A,,food|coffee|casual|hangout,openstreetmap,3986715072,N/A,N/A,N/A,coffee_shop,N/A,N/A,N/A,N/A,False,False,budget,Café / Coffee Shop
OPE_4520447491,Shabree Sharvaree,18.524606,73.841585,cafe,cafe,N/A,N/A,,food|coffee|casual|hangout,openstreetmap,4520447491,N/A,N/A,N/A,N/A,N/A,N/A,N/A,N/A,False,False,budget,Café / Coffee Shop
OPE_283166318,Shisha Jazz Cafe,18.539128,73.904963,cafe,cafe,N/A,N/A,,food|coffee|casual|hangout,openstreetmap,283166318,N/A,N/A,N/A,N/A,N/A,N/A,N/A,N/A,False,False,budget,Café / Coffee Shop
OPE_13624338880,Shree Ji Ice Cream,18.514709,73.845374,cafe,ice_cream,N/A,N/A,,food|coffee|casual|hangout,openstreetmap,13624338880,N/A,N/A,N/A,N/A,N/A,N/A,N/A,N/A,False,False,budget,Café / Coffee Shop
OPE_10956621606,Shree Wadeshwar Bhuvan,18.510881,73.853639,cafe,cafe,Bajirao Road,N/A,,food|coffee|casual|hangout,openstreetmap,10956621606,N/A,N/A,N/A,indian,N/A,N/A,N/A,N/A,False,False,budget,Café / Coffee Shop
OPE_13617110901,Shri Sai Cheesy Cafe,18.446942,73.809891,cafe,cafe,"DSK Vishwa Road, Pune, 411041",N/A,,food|coffee|casual|hangout,openstreetmap,13617110901,N/A,N/A,N/A,coffee_shop;pizza;burger;indian,N/A,N/A,N/A,N/A,False,False,budget,Café / Coffee Shop
OPE_13380384823,Shrinath Ji Ice Cream,18.521448,73.864763,cafe,ice_cream,"somwar peth, Station Road, Pune, 411011",N/A,,food|coffee|casual|hangout,openstreetmap,13380384823,N/A,N/A,N/A,N/A,N/A,N/A,N/A,N/A,False,False,budget,Café / Coffee Shop
OPE_13650171178,Sonai Milk Shop,18.573084,73.88307,cafe,ice_cream,N/A,N/A,,food|coffee|casual|hangout,openstreetmap,13650171178,N/A,N/A,N/A,N/A,N/A,N/A,N/A,N/A,False,False,budget,Café / Coffee Shop
OPE_1471511847,Sop 1 Example2,18.562564,73.77638,cafe,cafe,"6758, Balewadi High Street, Pune, 511045",N/A,,food|coffee|casual|hangout,openstreetmap,1471511847,N/A,N/A,Mo-Fr 09:00-17:00,pizza,N/A,N/A,N/A,N/A,False,False,budget,Café / Coffee Shop
OPE_819111733,South Canteen,18.529682,73.85452,cafe,cafe,N/A,N/A,,food|coffee|casual|hangout,openstreetmap,819111733,N/A,N/A,N/A,N/A,N/A,N/A,N/A,N/A,False,False,budget,Café / Coffee Shop
OPE_7207627092,Starbucks,18.556699,73.808869,cafe,cafe,N/A,N/A,,food|coffee|casual|hangout,openstreetmap,7207627092,N/A,N/A,N/A,coffee_shop,N/A,no,N/A,N/A,False,False,budget,Café / Coffee Shop
OPE_9229704619,Starbucks,18.502011,73.821999,cafe,cafe,"Sangam Solitaire, Ground Floor, Late GA Kulkarni Path, Kothrud, Pune, Maharashtra 411038",N/A,,food|coffee|casual|hangout,openstreetmap,9229704619,https://www.starbucks.in/,082912 79830,Mo-Su 08:00-23:00,coffee_shop,"Seattle-based coffeehouse chain known for its signature roasts, light bites and WiFi availability.",N/A,N/A,N/A,False,False,budget,Café / Coffee Shop
OPE_9402107553,Starbucks,18.534283,73.829854,cafe,cafe,N/A,N/A,,food|coffee|casual|hangout,openstreetmap,9402107553,https://www.starbucks.in/,N/A,Mo-Su 09:00-20:00,coffee_shop,N/A,limited,N/A,N/A,False,False,budget,Café / Coffee Shop
OPE_9523273130,Starbucks,18.514401,73.828863,cafe,cafe,"Vishnushastri Chiplunkar Path, Pune, 411004",N/A,,food|coffee|casual|hangout,openstreetmap,9523273130,N/A,N/A,Mo-Su 06:00-23:00,coffee_shop,N/A,N/A,N/A,N/A,False,False,budget,Café / Coffee Shop
OPE_672675264,Starbucks,18.539267,73.886694,cafe,cafe,"North Main Road, Pune, 411001",N/A,,food|coffee|casual|hangout,openstreetmap,672675264,N/A,N/A,N/A,coffee_shop,N/A,no,N/A,N/A,False,False,budget,Café / Coffee Shop
OPE_6186406656,Starbucks,18.546563,73.90095,cafe,cafe,N/A,N/A,,food|coffee|casual|hangout,openstreetmap,6186406656,N/A,N/A,N/A,coffee_shop,N/A,N/A,N/A,N/A,False,False,budget,Café / Coffee Shop
OPE_6201762556,Starbucks,18.522479,73.841153,cafe,cafe,"Gopal Krushna Gokhale Path, Pune, 411004",N/A,,food|coffee|casual|hangout,openstreetmap,6201762556,https://www.starbucks.in/,N/A,Mo-Su 07:00-23:00,coffee_shop,"Seattle-based coffeehouse chain known for its signature roasts, light bites and WiFi availability.",N/A,N/A,File:Starbucks Fergusson College.jpg,False,False,budget,Café / Coffee Shop
OPE_10082191331,Starbucks,18.552349,73.948082,cafe,cafe,"Fountain Road, 411014",N/A,,food|coffee|casual|hangout,openstreetmap,10082191331,N/A,N/A,Mo-Fr 08:00-23:00,coffee_shop,N/A,N/A,N/A,N/A,False,False,budget,Café / Coffee Shop
OPE_10704253285,Stories Cafe,18.532871,73.895533,cafe,cafe,N/A,N/A,,food|coffee|casual|hangout,openstreetmap,10704253285,https://storiespune.in,N/A,N/A,coffee_shop,N/A,N/A,N/A,N/A,False,False,budget,Café / Coffee Shop
OPE_12669955615,Street Coffee,18.459511,73.785451,cafe,cafe,N/A,N/A,,food|coffee|casual|hangout,openstreetmap,12669955615,N/A,N/A,N/A,coffee_shop,N/A,N/A,N/A,N/A,False,False,budget,Café / Coffee Shop
OPE_13381102485,Street Coffee,18.637053,73.846813,cafe,cafe,"Vaishnao Mata Marg, pune",N/A,,food|coffee|casual|hangout,openstreetmap,13381102485,N/A,N/A,N/A,pizza;italian;asian,N/A,N/A,N/A,N/A,False,False,budget,Café / Coffee Shop
OPE_3535089572,Sujata Mastani,18.482336,73.827031,cafe,ice_cream,"Vitthalwadi, Pune",N/A,,food|coffee|casual|hangout,openstreetmap,3535089572,http://sujatamastani.com,09822111104,Tu-Su 10:00-23:00,N/A,N/A,N/A,N/A,N/A,False,False,budget,Café / Coffee Shop
OPE_11292638581,Sujata Mastani,18.4568,73.802063,cafe,ice_cream,"Sinhagad Road, Pune, 411041",N/A,,food|coffee|casual|hangout,openstreetmap,11292638581,N/A,N/A,N/A,N/A,N/A,N/A,N/A,N/A,False,False,budget,Café / Coffee Shop
OPE_360321487,Sujata Mastani,18.48056,73.865122,cafe,cafe,"Shop 3 Vasant Vihar Society Bibvewadi, Kondhwa Road, Pune, 411037",N/A,,food|coffee|casual|hangout,openstreetmap,360321487,N/A,N/A,N/A,N/A,N/A,N/A,N/A,N/A,False,False,budget,Café / Coffee Shop
OPE_12284601895,Sujata Mastani,18.564408,73.807995,cafe,ice_cream,"somdev park, Pune",N/A,,food|coffee|casual|hangout,openstreetmap,12284601895,N/A,N/A,Tu-Su 10:00-22:30,N/A,N/A,N/A,N/A,N/A,False,False,budget,Café / Coffee Shop
OPE_13598173683,Sujata Mastani,18.559589,73.790214,cafe,ice_cream,N/A,N/A,,food|coffee|casual|hangout,openstreetmap,13598173683,N/A,N/A,N/A,N/A,N/A,N/A,N/A,N/A,False,False,budget,Café / Coffee Shop
OPE_2858176025,Sujata Mastani,18.511737,73.852053,cafe,ice_cream,N/A,N/A,,food|coffee|casual|hangout,openstreetmap,2858176025,N/A,N/A,N/A,N/A,N/A,N/A,N/A,N/A,False,False,budget,Café / Coffee Shop
OPE_6241949022,Sujata Mastani,18.511653,73.852237,cafe,ice_cream,N/A,N/A,,food|coffee|casual|hangout,openstreetmap,6241949022,N/A,N/A,N/A,N/A,N/A,N/A,N/A,N/A,False,False,budget,Café / Coffee Shop
OPE_7112841941,Sunrise Garden Cafe,18.457569,73.912684,cafe,cafe,N/A,N/A,,food|coffee|casual|hangout,openstreetmap,7112841941,N/A,N/A,N/A,persian,N/A,N/A,N/A,N/A,False,False,budget,Café / Coffee Shop
OPE_2203119229,Sweet Chariot,18.527138,73.841628,cafe,cafe,N/A,N/A,,food|coffee|casual|hangout,openstreetmap,2203119229,N/A,N/A,N/A,N/A,N/A,N/A,N/A,N/A,False,False,budget,Café / Coffee Shop
OPE_6184010099,Tgf Cafe,18.539218,73.89746,cafe,cafe,N/A,N/A,,food|coffee|casual|hangout,openstreetmap,6184010099,N/A,N/A,N/A,N/A,N/A,N/A,N/A,N/A,False,False,budget,Café / Coffee Shop
OPE_12127600502,The Box Bistro,18.505906,73.82814,cafe,cafe,N/A,N/A,,food|coffee|casual|hangout,openstreetmap,12127600502,N/A,N/A,N/A,N/A,N/A,N/A,N/A,N/A,False,False,budget,Café / Coffee Shop
OPE_4061013196,The Breakfast Cafe,18.523391,73.780489,cafe,cafe,N/A,N/A,,food|coffee|casual|hangout,openstreetmap,4061013196,N/A,N/A,N/A,cafe,N/A,N/A,N/A,N/A,False,False,budget,Café / Coffee Shop
OPE_9229782583,The Brown Cafe,18.500938,73.80481,cafe,cafe,"Shop No 1, Hari Ganga Apts, S, no 49, Gandhi Bhavan Rd, Kothrud, Pune, Maharashtra 411029",N/A,,food|coffee|casual|hangout,openstreetmap,9229782583,https://thebrowncafe.in/,N/A,Mo-Su 11:00-22:00,N/A,N/A,N/A,N/A,N/A,False,False,budget,Café / Coffee Shop
OPE_9342590021,The Cartoon Cafe,18.555899,73.920517,cafe,cafe,"sr.no 36, ramchandra nagar, pune, 411014",N/A,,food|coffee|casual|hangout,openstreetmap,9342590021,https://www.thecartooncafe.com/,N/A,Mo-Su 08:00-22:00,international,N/A,N/A,N/A,N/A,False,False,budget,Café / Coffee Shop
OPE_12378582777,The Chefs Way Cafe,18.562683,73.8318,cafe,cafe,"203, ganga legend, pune, 411020",N/A,,food|coffee|casual|hangout,openstreetmap,12378582777,N/A,7385589357,Mo-Fr 09:00-18:00,chicken;burger;pizza;italian,N/A,N/A,N/A,N/A,False,False,budget,Café / Coffee Shop
OPE_11681074026,The French Window Patisserie,18.537613,73.89794,cafe,cafe,N/A,N/A,,food|coffee|casual|hangout,openstreetmap,11681074026,N/A,N/A,N/A,coffee_shop,N/A,N/A,N/A,N/A,False,False,budget,Café / Coffee Shop
OPE_8711632382,The Veg Culture,18.471886,73.820455,cafe,cafe,N/A,N/A,,food|coffee|casual|hangout,openstreetmap,8711632382,N/A,N/A,N/A,N/A,N/A,N/A,N/A,N/A,False,False,budget,Café / Coffee Shop
OPE_10648169752,Third Wave Coffee,18.556212,73.808974,cafe,cafe,"Ozone Mall, Anand Park, ITI Road",N/A,,food|coffee|casual|hangout,openstreetmap,10648169752,N/A,+91 95298 83500,N/A,N/A,N/A,no,N/A,N/A,False,False,budget,Café / Coffee Shop
OPE_13064968272,Third Wave Coffee,18.560857,73.806785,cafe,cafe,"Westend Icon, Aundh, Pune, 411007",N/A,,food|coffee|casual|hangout,openstreetmap,13064968272,N/A,N/A,N/A,coffee_shop,N/A,N/A,N/A,N/A,False,False,budget,Café / Coffee Shop
OPE_10054088273,Third Wave Coffee,18.539103,73.900035,cafe,cafe,N/A,N/A,,food|coffee|casual|hangout,openstreetmap,10054088273,N/A,N/A,N/A,N/A,N/A,N/A,N/A,N/A,False,False,budget,Café / Coffee Shop
OPE_10250076204,Two Good (Food | Art | Studio),18.554074,73.804863,cafe,cafe,N/A,N/A,,food|coffee|casual|hangout,openstreetmap,10250076204,N/A,N/A,N/A,N/A,N/A,N/A,N/A,N/A,False,False,budget,Café / Coffee Shop
OPE_5695613020,Vee Cafe,18.459564,73.7856,cafe,cafe,N/A,N/A,,food|coffee|casual|hangout,openstreetmap,5695613020,N/A,N/A,N/A,sandwich,N/A,N/A,N/A,N/A,False,False,budget,Café / Coffee Shop
OPE_1371963261,Vit Canteen,18.463025,73.868121,cafe,cafe,N/A,N/A,,food|coffee|casual|hangout,openstreetmap,1371963261,N/A,N/A,N/A,N/A,N/A,N/A,N/A,N/A,False,False,budget,Café / Coffee Shop
OPE_9967066414,Vohuman Cafe,18.532438,73.87685,cafe,cafe,"Rajarshi Shahu Maharaj Path, Pune",N/A,,food|coffee|casual|hangout,openstreetmap,9967066414,https://www.facebook.com/vohumancafe/,+919373323263,Mo-Su 06:00-18:30,N/A,N/A,N/A,N/A,N/A,False,False,budget,Café / Coffee Shop
OPE_11126719893,Vohuman Café,18.532523,73.876734,cafe,cafe,"Millennium Star, Chatrapati Shahu Maharaja Road, bear Ruby Hall",N/A,,food|coffee|casual|hangout,openstreetmap,11126719893,N/A,+919373323263,Mo-Su 06:00-19:30,N/A,Local street food place with a casual but pleasant ambience. Chai and butter toast are on point.,N/A,N/A,N/A,False,False,budget,Café / Coffee Shop
OPE_479980729,Waari Cafe,18.506408,73.821082,cafe,cafe,N/A,N/A,,food|coffee|casual|hangout,openstreetmap,479980729,N/A,N/A,N/A,N/A,N/A,N/A,N/A,N/A,False,False,budget,Café / Coffee Shop
OPE_11274112988,Westyard Cafe,18.507673,73.835137,cafe,cafe,N/A,N/A,,food|coffee|casual|hangout,openstreetmap,11274112988,N/A,N/A,N/A,N/A,N/A,N/A,N/A,N/A,False,False,budget,Café / Coffee Shop
OPE_1229142799,Yerawada,18.565632,73.886576,cafe,cafe,N/A,N/A,,food|coffee|casual|hangout,openstreetmap,1229142799,N/A,N/A,N/A,coffee_shop,N/A,N/A,N/A,Category:Yerwada,False,False,budget,Café / Coffee Shop
OPE_3964005611,Yogi Tree Cafe,18.541253,73.887653,cafe,cafe,N/A,N/A,,food|coffee|casual|hangout,openstreetmap,3964005611,N/A,N/A,N/A,N/A,N/A,N/A,N/A,N/A,False,False,budget,Café / Coffee Shop
