place_id,place_name,latitude,longitude,category,subcategory,address,rating,rating_normalized,tags,source,osm_id,website,phone,opening_hours,cuisine,description,wheelchair,fee,image,is_free,is_open_24h,price_level,category_label
OPE_10115879742,3 Star Mens Wear,18.447246,73.808928,shopping,clothes,"DSK Vishwa Road, Pune, 411041",N/A,,shopping|retail|market,openstreetmap,10115879742,N/A,09307353787,N/A,N/A,N/A,N/A,N/A,N/A,False,False,budget,Shopping
OPE_3687275467,53 Bt Kawde Rd.,18.518097,73.907398,shopping,supermarket,N/A,N/A,,shopping|retail|market,openstreetmap,3687275467,N/A,N/A,N/A,N/A,N/A,N/A,N/A,N/A,False,False,budget,Shopping
OPE_783224326,93 Avenue,18.505528,73.90662,shopping,mall,N/A,N/A,,shopping|retail|market,openstreetmap,783224326,N/A,N/A,N/A,N/A,N/A,N/A,N/A,N/A,False,False,budget,Shopping
OPE_359939181,9Options,18.50596,73.927452,shopping,clothes,N/A,N/A,,shopping|retail|market,openstreetmap,359939181,N/A,N/A,N/A,N/A,N/A,N/A,N/A,N/A,False,False,budget,Shopping
OPE_6357902239,Aaimata Super Shopee,18.460096,73.826686,shopping,supermarket,N/A,N/A,,shopping|retail|market,openstreetmap,6357902239,N/A,N/A,N/A,N/A,N/A,N/A,N/A,N/A,False,False,budget,Shopping
OPE_10222864310,Aarya Garments And Distribution Co,18.443428,73.785786,shopping,clothes,N/A,N/A,,shopping|retail|market,openstreetmap,10222864310,N/A,N/A,N/A,N/A,N/A,N/A,N/A,N/A,False,False,budget,Shopping
OPE_10799615806,Aashna Fashions,18.545038,73.779747,shopping,clothes,Pashan-Sus Road,N/A,,shopping|retail|market,openstreetmap,10799615806,N/A,N/A,N/A,N/A,N/A,N/A,N/A,N/A,False,False,budget,Shopping
OPE_289375517,Aditya Shagun Mall,18.519274,73.778516,shopping,mall,N/A,N/A,,shopping|retail|market,openstreetmap,289375517,N/A,N/A,N/A,N/A,N/A,N/A,N/A,N/A,False,False,budget,Shopping
OPE_5713386321,Agraj Food Products,18.548199,73.793319,shopping,supermarket,N/A,N/A,,shopping|retail|market,openstreetmap,5713386321,N/A,N/A,N/A,N/A,N/A,N/A,N/A,N/A,False,False,budget,Shopping
OPE_6131097715,Akshar,18.560419,73.808602,shopping,clothes,N/A,N/A,,shopping|retail|market,openstreetmap,6131097715,N/A,N/A,Mo-Su 10:00-20:30,N/A,N/A,N/A,N/A,N/A,False,False,budget,Shopping
OPE_5832438788,All For Small,18.517105,73.841534,shopping,clothes,N/A,N/A,,shopping|retail|market,openstreetmap,5832438788,N/A,N/A,N/A,N/A,N/A,N/A,N/A,N/A,False,False,budget,Shopping
OPE_6111212664,Allen Solly,18.565516,73.806588,shopping,clothes,N/A,N/A,,shopping|retail|market,openstreetmap,6111212664,N/A,N/A,N/A,N/A,N/A,N/A,N/A,N/A,False,False,budget,Shopping
OPE_3837531761,Allen Solly,18.518354,73.844178,shopping,clothes,N/A,N/A,,shopping|retail|market,openstreetmap,3837531761,N/A,N/A,N/A,N/A,N/A,N/A,N/A,N/A,False,False,budget,Shopping
OPE_10567046710,Allen Solly,18.556655,73.937558,shopping,clothes,N/A,N/A,,shopping|retail|market,openstreetmap,10567046710,N/A,N/A,N/A,N/A,N/A,N/A,N/A,N/A,False,False,budget,Shopping
OPE_10266706067,Allen Solly,18.596893,73.802062,shopping,clothes,N/A,N/A,,shopping|retail|market,openstreetmap,10266706067,N/A,N/A,N/A,N/A,N/A,N/A,N/A,N/A,False,False,budget,Shopping
OPE_11245293909,Allen Solly,18.591057,73.74328,shopping,clothes,N/A,N/A,,shopping|retail|market,openstreetmap,11245293909,N/A,N/A,N/A,N/A,N/A,N/A,N/A,N/A,False,False,budget,Shopping
OPE_10598350043,Aman Jewellers,18.470609,73.889196,shopping,jewelry,N/A,N/A,,shopping|retail|market,openstreetmap,10598350043,N/A,N/A,N/A,N/A,N/A,N/A,N/A,N/A,False,False,budget,Shopping
OPE_224711846,Amanora Mall,18.518641,73.935231,shopping,mall,411028,N/A,,shopping|retail|market,openstreetmap,224711846,N/A,N/A,N/A,N/A,N/A,N/A,N/A,N/A,False,False,budget,Shopping
OPE_224711847,Amanora Town Centre,18.518653,73.935116,shopping,mall,"Mundhwa Road, Pune, 411028",N/A,,shopping|retail|market,openstreetmap,224711847,https://amanora.com/towncentre,020-67267888,N/A,N/A,N/A,yes,N/A,N/A,False,False,budget,Shopping
OPE_5839779151,Amante,18.490991,73.822596,shopping,clothes,N/A,N/A,,shopping|retail|market,openstreetmap,5839779151,N/A,N/A,N/A,N/A,N/A,N/A,N/A,N/A,False,False,budget,Shopping
OPE_4730247391,Amar Matching,18.518504,73.856689,shopping,clothes,N/A,N/A,,shopping|retail|market,openstreetmap,4730247391,N/A,N/A,N/A,N/A,N/A,N/A,N/A,N/A,False,False,budget,Shopping
OPE_11061383058,Angelic Designer,18.566819,73.807611,shopping,clothes,N/A,N/A,,shopping|retail|market,openstreetmap,11061383058,N/A,N/A,N/A,N/A,N/A,N/A,N/A,N/A,False,False,budget,Shopping
OPE_2973472801,Aundh Market,18.565648,73.811925,shopping,marketplace,N/A,N/A,,shopping|retail|market,openstreetmap,2973472801,N/A,N/A,N/A,N/A,N/A,N/A,N/A,N/A,False,False,budget,Shopping
OPE_10219140977,Bajartal Area,18.576229,73.981669,shopping,marketplace,"156, Maharashtra, Wagholi",N/A,,shopping|retail|market,openstreetmap,10219140977,N/A,N/A,N/A,N/A,N/A,N/A,N/A,N/A,False,False,budget,Shopping
OPE_9120636939,Balaji,18.481936,73.898931,shopping,supermarket,"Shop No 11-12 Picasso Kedari Arcade, Salunkhe Vihar Road, Pune, 411040",N/A,,shopping|retail|market,openstreetmap,9120636939,N/A,N/A,Mo-Su 09:00-21:00,N/A,N/A,N/A,N/A,N/A,False,False,budget,Shopping
OPE_6367603829,Balaji Market,18.460676,73.825768,shopping,supermarket,N/A,N/A,,shopping|retail|market,openstreetmap,6367603829,N/A,N/A,N/A,N/A,N/A,N/A,N/A,N/A,False,False,budget,Shopping
OPE_13619945427,Balaji Super Market,18.448017,73.810299,shopping,supermarket,"Dhayari Road, Pune, 411041",N/A,,shopping|retail|market,openstreetmap,13619945427,N/A,N/A,N/A,N/A,N/A,N/A,N/A,N/A,False,False,budget,Shopping
OPE_13629200601,Balaji Super Market,18.508491,73.95841,shopping,supermarket,N/A,N/A,,shopping|retail|market,openstreetmap,13629200601,N/A,N/A,N/A,N/A,N/A,N/A,N/A,N/A,False,False,budget,Shopping
OPE_11292633360,Balaji Traders,18.442972,73.780655,shopping,supermarket,"Sinhagad Road, Pune, 411024",N/A,,shopping|retail|market,openstreetmap,11292633360,N/A,N/A,N/A,N/A,N/A,N/A,N/A,N/A,False,False,budget,Shopping
OPE_13629462842,Balaji Traders,18.500204,73.951168,shopping,supermarket,N/A,N/A,,shopping|retail|market,openstreetmap,13629462842,N/A,N/A,N/A,N/A,N/A,N/A,N/A,N/A,False,False,budget,Shopping
OPE_9128882551,Bangtan Store,18.523413,73.864668,shopping,supermarket,N/A,N/A,,shopping|retail|market,openstreetmap,9128882551,N/A,N/A,Mo-Su 10:00-22:00,N/A,N/A,N/A,N/A,N/A,False,False,budget,Shopping
OPE_1098751703,Bawdhan Market Yard,18.51054,73.766273,shopping,marketplace,N/A,N/A,,shopping|retail|market,openstreetmap,1098751703,N/A,N/A,N/A,N/A,N/A,N/A,N/A,N/A,False,False,budget,Shopping
OPE_10222864315,Bhagyalakshmi Super Market,18.443652,73.785698,shopping,supermarket,"Kolhewadi Road, Pune, 411024",N/A,,shopping|retail|market,openstreetmap,10222864315,N/A,N/A,N/A,N/A,N/A,N/A,N/A,N/A,False,False,budget,Shopping
OPE_8218459344,Bhagyalaxmi Store,18.515033,73.817071,shopping,supermarket,N/A,N/A,,shopping|retail|market,openstreetmap,8218459344,N/A,N/A,N/A,N/A,N/A,N/A,N/A,N/A,False,False,budget,Shopping
OPE_13644398782,Bhakti Garments,18.49337,73.825558,shopping,clothes,N/A,N/A,,shopping|retail|market,openstreetmap,13644398782,N/A,N/A,N/A,N/A,N/A,N/A,N/A,N/A,False,False,budget,Shopping
OPE_13380447641,Bharat Aabhushan,18.587847,73.887263,shopping,jewelry,N/A,N/A,,shopping|retail|market,openstreetmap,13380447641,N/A,N/A,09:00-21:00,N/A,N/A,N/A,N/A,N/A,False,False,budget,Shopping
OPE_5695621982,Bharat Bazar,18.45985,73.786056,shopping,supermarket,N/A,N/A,,shopping|retail|market,openstreetmap,5695621982,N/A,N/A,N/A,N/A,N/A,N/A,N/A,N/A,False,False,budget,Shopping
OPE_11811965336,Bhavani Mart,18.579236,73.972757,shopping,supermarket,"Nagar Road, Wagholi, 412207",N/A,,shopping|retail|market,openstreetmap,11811965336,N/A,N/A,N/A,N/A,N/A,N/A,N/A,N/A,False,False,budget,Shopping
OPE_13380861017,Bhawani Mens Wear,18.588079,73.862512,shopping,clothes,Pune,N/A,,shopping|retail|market,openstreetmap,13380861017,N/A,N/A,N/A,N/A,N/A,N/A,N/A,N/A,False,False,budget,Shopping
OPE_11966764817,Biba,18.56452,73.776199,shopping,clothes,N/A,N/A,,shopping|retail|market,openstreetmap,11966764817,N/A,N/A,N/A,N/A,N/A,N/A,N/A,N/A,False,False,budget,Shopping
OPE_4287470748,Big Bazaar,18.46308,73.816508,shopping,supermarket,"Pune, 411041",N/A,,shopping|retail|market,openstreetmap,4287470748,https://www.bigbazaar.com/,+919168650832,Mo-Su 10:00-22:00,N/A,N/A,N/A,N/A,N/A,False,False,budget,Shopping
OPE_5518862577,Big Bazaar,18.592078,73.744748,shopping,mall,N/A,N/A,,shopping|retail|market,openstreetmap,5518862577,N/A,N/A,N/A,N/A,N/A,N/A,N/A,N/A,False,False,budget,Shopping
OPE_7062711334,Big Bazaar,18.635723,73.796122,shopping,supermarket,N/A,N/A,,shopping|retail|market,openstreetmap,7062711334,N/A,N/A,N/A,N/A,N/A,N/A,N/A,N/A,False,False,budget,Shopping
OPE_7083553556,Bipico,18.632368,73.801106,shopping,clothes,N/A,N/A,,shopping|retail|market,openstreetmap,7083553556,N/A,N/A,N/A,N/A,N/A,N/A,N/A,N/A,False,False,budget,Shopping
OPE_2034762319,Bizzbay,18.469318,73.900126,shopping,mall,"NIBM Road, Pune, 411018",N/A,,shopping|retail|market,openstreetmap,2034762319,N/A,N/A,N/A,N/A,N/A,N/A,N/A,N/A,False,False,budget,Shopping
OPE_6111132441,Blackberrys,18.560478,73.812037,shopping,clothes,"Sanghvi Kesari Road, Pune, 411007",N/A,,shopping|retail|market,openstreetmap,6111132441,https://blackberrys.com/,+91 916 707 3065,Mo-Su 10:30-21:30,N/A,N/A,N/A,N/A,N/A,False,False,budget,Shopping
OPE_2859985519,Blackberrys,18.519678,73.845263,shopping,clothes,N/A,N/A,,shopping|retail|market,openstreetmap,2859985519,N/A,N/A,N/A,N/A,N/A,N/A,N/A,N/A,False,False,budget,Shopping
OPE_10536188709,Blackberrys,18.553791,73.937185,shopping,clothes,N/A,N/A,,shopping|retail|market,openstreetmap,10536188709,N/A,N/A,N/A,N/A,N/A,N/A,N/A,N/A,False,False,budget,Shopping
OPE_5818757681,Bodybasics,18.49023,73.824811,shopping,clothes,N/A,N/A,,shopping|retail|market,openstreetmap,5818757681,N/A,N/A,N/A,N/A,N/A,N/A,N/A,N/A,False,False,budget,Shopping
OPE_10250100118,Bombay Dyeing,18.554333,73.804939,shopping,clothes,N/A,N/A,,shopping|retail|market,openstreetmap,10250100118,N/A,N/A,N/A,N/A,N/A,N/A,N/A,N/A,False,False,budget,Shopping
OPE_13130253044,Bombay Gourment,18.558495,73.954944,shopping,supermarket,N/A,N/A,,shopping|retail|market,openstreetmap,13130253044,N/A,N/A,N/A,N/A,N/A,N/A,N/A,N/A,False,False,budget,Shopping
OPE_552188053,Booker Store,18.46069,73.890951,shopping,supermarket,N/A,N/A,,shopping|retail|market,openstreetmap,552188053,N/A,N/A,N/A,N/A,N/A,N/A,N/A,N/A,False,False,budget,Shopping
OPE_13585393725,Bougainvillea,18.554085,73.798726,shopping,clothes,N/A,N/A,,shopping|retail|market,openstreetmap,13585393725,N/A,N/A,N/A,N/A,N/A,N/A,N/A,N/A,False,False,budget,Shopping
OPE_7062711327,Brand Factory,18.636351,73.796183,shopping,clothes,N/A,N/A,,shopping|retail|market,openstreetmap,7062711327,N/A,N/A,N/A,N/A,N/A,N/A,N/A,N/A,False,False,budget,Shopping
OPE_11159366036,Brand Tree Apparels And Footwear,18.591115,73.746362,shopping,clothes,N/A,N/A,,shopping|retail|market,openstreetmap,11159366036,N/A,N/A,N/A,N/A,N/A,N/A,N/A,N/A,False,False,budget,Shopping
OPE_10650790482,Brandmart,18.600278,73.769706,shopping,clothes,N/A,N/A,,shopping|retail|market,openstreetmap,10650790482,N/A,N/A,N/A,N/A,N/A,no,N/A,N/A,False,False,budget,Shopping
OPE_10536188711,Bsj,18.553868,73.937193,shopping,jewelry,N/A,N/A,,shopping|retail|market,openstreetmap,10536188711,N/A,N/A,N/A,N/A,N/A,N/A,N/A,N/A,False,False,budget,Shopping
OPE_289375521,C'Lai,18.505769,73.853428,shopping,clothes,N/A,N/A,,shopping|retail|market,openstreetmap,289375521,N/A,N/A,N/A,N/A,N/A,N/A,N/A,N/A,False,False,budget,Shopping
OPE_11159366033,Cantabil,18.556741,73.794011,shopping,clothes,N/A,N/A,,shopping|retail|market,openstreetmap,11159366033,N/A,N/A,N/A,N/A,N/A,N/A,N/A,N/A,False,False,budget,Shopping
OPE_11245293910,Cantabil,18.591032,73.742995,shopping,clothes,N/A,N/A,,shopping|retail|market,openstreetmap,11245293910,N/A,N/A,N/A,N/A,N/A,N/A,N/A,N/A,False,False,budget,Shopping
OPE_10313195120,Carpet Store,18.490751,73.846693,shopping,supermarket,"mian road, Dhomkar Path, Pune, 411009",N/A,,shopping|retail|market,openstreetmap,10313195120,N/A,9885467721,Mo-Su 09:00-21:00,N/A,N/A,N/A,N/A,N/A,False,False,budget,Shopping
OPE_9987763074,Casuals,18.596289,73.773531,shopping,clothes,N/A,N/A,,shopping|retail|market,openstreetmap,9987763074,N/A,N/A,N/A,N/A,N/A,N/A,N/A,N/A,False,False,budget,Shopping
OPE_359539512,Central Mall,18.632486,73.800948,shopping,mall,N/A,N/A,,shopping|retail|market,openstreetmap,359539512,N/A,N/A,N/A,N/A,N/A,N/A,N/A,N/A,False,False,budget,Shopping
OPE_149110266,Centro Mall,18.534457,73.838618,shopping,mall,University Road,N/A,,shopping|retail|market,openstreetmap,149110266,N/A,N/A,N/A,N/A,N/A,yes,N/A,N/A,False,False,budget,Shopping
OPE_207872421,Centro Mall,18.510454,73.838599,shopping,mall,"MSM PARANJAPE MALL, OFF KARVE ROAD, NEAR MES COLLEGE, Pune, Maharashtra 411004",N/A,,shopping|retail|market,openstreetmap,207872421,https://centralandme.com/,N/A,"Mo-Fr 11:30-21:30; Sa, Su 11:00-22:00",N/A,N/A,N/A,N/A,N/A,False,False,budget,Shopping
OPE_12484474301,Champion,18.566261,73.807226,shopping,clothes,N/A,N/A,,shopping|retail|market,openstreetmap,12484474301,N/A,N/A,N/A,N/A,N/A,N/A,N/A,N/A,False,False,budget,Shopping
OPE_2273735907,Champion,18.516233,73.84151,shopping,clothes,N/A,N/A,,shopping|retail|market,openstreetmap,2273735907,N/A,N/A,N/A,N/A,N/A,no,N/A,N/A,False,False,budget,Shopping
OPE_9216057495,Chetana Super Market,18.474561,73.813853,shopping,supermarket,"Sun Paradise Phase 1, Suncity Road, pune, 411051",N/A,,shopping|retail|market,openstreetmap,9216057495,N/A,N/A,Mo-Su 08:00-22:00,N/A,N/A,N/A,N/A,N/A,False,False,budget,Shopping
OPE_10304968553,Chinchwad Gaon Bhaji Mandai,18.629369,73.780367,shopping,marketplace,N/A,N/A,,shopping|retail|market,openstreetmap,10304968553,N/A,N/A,N/A,N/A,N/A,N/A,N/A,N/A,False,False,budget,Shopping
OPE_763455220,Chitale,18.557592,73.805522,shopping,supermarket,N/A,N/A,,shopping|retail|market,openstreetmap,763455220,N/A,N/A,N/A,N/A,N/A,N/A,N/A,N/A,False,False,budget,Shopping
OPE_359752437,City Mall,18.541405,73.830713,shopping,mall,N/A,N/A,,shopping|retail|market,openstreetmap,359752437,N/A,N/A,N/A,N/A,N/A,N/A,N/A,N/A,False,False,budget,Shopping
OPE_4592694089,City One,18.633132,73.800556,shopping,mall,N/A,N/A,,shopping|retail|market,openstreetmap,4592694089,N/A,N/A,N/A,N/A,N/A,N/A,N/A,N/A,False,False,budget,Shopping
OPE_359350392,City One,18.633228,73.800618,shopping,mall,N/A,N/A,,shopping|retail|market,openstreetmap,359350392,N/A,N/A,N/A,N/A,N/A,N/A,N/A,N/A,False,False,budget,Shopping
OPE_10314677946,Cocoons,18.560836,73.812054,shopping,clothes,"Sanghvi Kesari Road, Pune, 411007",N/A,,shopping|retail|market,openstreetmap,10314677946,https://cocoons-shopping-center.business.site,+91 989 071 9178+91 750 724 5454,Mo-Su 10:00-21:30,N/A,N/A,N/A,N/A,N/A,False,False,budget,Shopping
OPE_1690324169,Coep Department Of Mathematics,18.530694,73.856823,shopping,supermarket,N/A,N/A,,shopping|retail|market,openstreetmap,1690324169,N/A,N/A,N/A,N/A,N/A,N/A,N/A,N/A,False,False,budget,Shopping
OPE_13637478623,Cotton Cottage,18.511517,73.836661,shopping,clothes,N/A,N/A,,shopping|retail|market,openstreetmap,13637478623,N/A,N/A,N/A,N/A,N/A,N/A,N/A,N/A,False,False,budget,Shopping
OPE_10246158976,Cotton King,18.500272,73.740493,shopping,clothes,N/A,N/A,,shopping|retail|market,openstreetmap,10246158976,N/A,N/A,N/A,N/A,N/A,N/A,N/A,N/A,False,False,budget,Shopping
OPE_11097589650,Cotton King,18.560295,73.806332,shopping,clothes,"Ramchandra Gayakwad Path, Pune, 411007",N/A,,shopping|retail|market,openstreetmap,11097589650,https://www.cottonking.com,N/A,N/A,N/A,N/A,N/A,N/A,N/A,False,False,budget,Shopping
OPE_11061379372,Cotton Village,18.566457,73.807612,shopping,clothes,N/A,N/A,,shopping|retail|market,openstreetmap,11061379372,N/A,N/A,N/A,N/A,N/A,N/A,N/A,N/A,False,False,budget,Shopping
OPE_11292638583,Cottonking,18.456859,73.802139,shopping,clothes,"Sinhagad Road, Pune, 411041",N/A,,shopping|retail|market,openstreetmap,11292638583,N/A,N/A,N/A,N/A,N/A,N/A,N/A,N/A,False,False,budget,Shopping
OPE_13666869549,Cottonking,18.456103,73.81163,shopping,clothes,N/A,N/A,,shopping|retail|market,openstreetmap,13666869549,N/A,N/A,N/A,N/A,N/A,N/A,N/A,N/A,False,False,budget,Shopping
OPE_10799628507,Cottonking,18.54459,73.781686,shopping,clothes,Pashan-Sus Road,N/A,,shopping|retail|market,openstreetmap,10799628507,N/A,N/A,N/A,N/A,N/A,N/A,N/A,N/A,False,False,budget,Shopping
OPE_13585393799,Cottonking,18.557897,73.792679,shopping,clothes,N/A,N/A,,shopping|retail|market,openstreetmap,13585393799,N/A,N/A,N/A,N/A,N/A,N/A,N/A,N/A,False,False,budget,Shopping
OPE_9872242993,Creamy Slice By Anu,18.597731,73.763813,shopping,supermarket,"shop no2, Kalate COmplex, Mauli Chowk, Datta Mandir Road",N/A,,shopping|retail|market,openstreetmap,9872242993,N/A,N/A,Mo-Su 09:00-21:00,N/A,N/A,N/A,N/A,N/A,False,False,budget,Shopping
OPE_13161637307,Creaty City,18.556628,73.894313,shopping,mall,N/A,N/A,,shopping|retail|market,openstreetmap,13161637307,N/A,N/A,N/A,N/A,N/A,N/A,N/A,N/A,False,False,budget,Shopping
OPE_282051126,Cromā,18.498683,73.821719,shopping,supermarket,"Uttamchand Mukunddas Gandhi Path, pune, 411038",N/A,,shopping|retail|market,openstreetmap,282051126,N/A,N/A,N/A,N/A,N/A,N/A,N/A,N/A,False,False,budget,Shopping
OPE_1899601536,D Mart,18.544444,73.911124,shopping,supermarket,Kalyani Nagar,N/A,,shopping|retail|market,openstreetmap,1899601536,N/A,N/A,N/A,N/A,N/A,N/A,N/A,N/A,False,False,budget,Shopping
OPE_11145678135,D Mart,18.584608,73.975981,shopping,supermarket,"Lohgaon - Wagholi Road, Wagholi, Pune, 412207",N/A,,shopping|retail|market,openstreetmap,11145678135,N/A,N/A,Mo-Su 09:00-21:00,N/A,N/A,N/A,N/A,N/A,False,False,budget,Shopping
OPE_4315091837,D-Mart,18.49351,73.934505,shopping,supermarket,411028,N/A,,shopping|retail|market,openstreetmap,4315091837,N/A,N/A,Mo-Su 10:00-22:00,N/A,N/A,N/A,N/A,N/A,False,False,budget,Shopping
OPE_11862126048,D-Mart,18.5599,73.950514,shopping,supermarket,N/A,N/A,,shopping|retail|market,openstreetmap,11862126048,N/A,N/A,N/A,N/A,N/A,N/A,N/A,N/A,False,False,budget,Shopping
OPE_13638581261,D-Mart,18.614155,73.784736,shopping,mall,N/A,N/A,,shopping|retail|market,openstreetmap,13638581261,N/A,N/A,N/A,N/A,N/A,N/A,N/A,N/A,False,False,budget,Shopping
OPE_9400303874,Daily Delights,18.564507,73.784896,shopping,supermarket,"123, kalamkar road, pune, 411045",N/A,,shopping|retail|market,openstreetmap,9400303874,https://dailydelights.com/,7722015300,10-10,N/A,N/A,N/A,N/A,N/A,False,False,budget,Shopping
OPE_5839779133,Dantale Art Jewellry,18.490666,73.823101,shopping,jewelry,N/A,N/A,,shopping|retail|market,openstreetmap,5839779133,N/A,9850509323,N/A,N/A,N/A,N/A,N/A,N/A,False,False,budget,Shopping
OPE_6145520668,Dattatray Vishwanath Hurne,18.503106,73.829257,shopping,clothes,N/A,N/A,,shopping|retail|market,openstreetmap,6145520668,N/A,N/A,N/A,N/A,N/A,N/A,N/A,N/A,False,False,budget,Shopping
OPE_4846840122,Dawarka Jewellers,18.478763,73.824026,shopping,jewelry,N/A,N/A,,shopping|retail|market,openstreetmap,4846840122,N/A,N/A,N/A,N/A,N/A,N/A,N/A,N/A,False,False,budget,Shopping
OPE_10799628905,Deepkala Fashion (Ladieswear And Kidswear),18.544786,73.780486,shopping,clothes,N/A,N/A,,shopping|retail|market,openstreetmap,10799628905,N/A,N/A,N/A,N/A,N/A,N/A,N/A,N/A,False,False,budget,Shopping
OPE_13385166656,Delhi Collection,18.589823,73.862683,shopping,clothes,Pune,N/A,,shopping|retail|market,openstreetmap,13385166656,N/A,N/A,N/A,N/A,N/A,N/A,N/A,N/A,False,False,budget,Shopping
OPE_139880138,Destination Center,18.509716,73.928345,shopping,mall,N/A,N/A,,shopping|retail|market,openstreetmap,139880138,N/A,N/A,N/A,N/A,N/A,N/A,N/A,N/A,False,False,budget,Shopping
OPE_11546228223,Dhanalaxmi Collection,18.560614,73.802924,shopping,clothes,"New DP Road, Pune, 411007",N/A,,shopping|retail|market,openstreetmap,11546228223,N/A,N/A,N/A,N/A,N/A,N/A,N/A,N/A,False,False,budget,Shopping
OPE_1063806009,Dhanashree Supermarket,18.544033,73.782124,shopping,supermarket,N/A,N/A,,shopping|retail|market,openstreetmap,1063806009,N/A,N/A,N/A,N/A,N/A,N/A,N/A,N/A,False,False,budget,Shopping
OPE_5695621983,Dmart,18.459893,73.785455,shopping,supermarket,"Pune, 411041",N/A,,shopping|retail|market,openstreetmap,5695621983,N/A,N/A,N/A,N/A,N/A,N/A,N/A,N/A,False,False,budget,Shopping
OPE_1597828157,Dmart,18.479228,73.856948,shopping,supermarket,N/A,N/A,,shopping|retail|market,openstreetmap,1597828157,N/A,N/A,Mo-Sa 08:00-22:00,N/A,N/A,N/A,N/A,N/A,False,False,budget,Shopping
OPE_10561419315,Dmart,18.457635,73.892598,shopping,supermarket,N/A,N/A,,shopping|retail|market,openstreetmap,10561419315,N/A,N/A,N/A,N/A,N/A,N/A,N/A,N/A,False,False,budget,Shopping
OPE_360288123,Dmart,18.457708,73.892627,shopping,supermarket,411048,N/A,,shopping|retail|market,openstreetmap,360288123,https://www.dmartindia.com,N/A,Mo-Sa 10:00-22:00,N/A,N/A,N/A,N/A,N/A,False,False,budget,Shopping
OPE_360506819,Dmart,18.451739,73.843954,shopping,supermarket,N/A,N/A,,shopping|retail|market,openstreetmap,360506819,N/A,N/A,N/A,N/A,N/A,N/A,N/A,N/A,False,False,budget,Shopping
OPE_12342519756,Dmart,18.455215,73.933671,shopping,supermarket,N/A,N/A,,shopping|retail|market,openstreetmap,12342519756,N/A,N/A,N/A,N/A,N/A,N/A,N/A,N/A,False,False,budget,Shopping
OPE_355092445,Dmart,18.566783,73.807051,shopping,supermarket,"Mahadji Shinde Marg, Pune, 411007",N/A,,shopping|retail|market,openstreetmap,355092445,https://www.dmart.in/,N/A,Mo-Su 07:00-22:00,N/A,N/A,N/A,N/A,N/A,False,False,budget,Shopping
OPE_2973334946,Dmart,18.566989,73.769659,shopping,supermarket,Gopal Hari Deshmukh Marg,N/A,,shopping|retail|market,openstreetmap,2973334946,https://www.dmart.in/,N/A,N/A,N/A,N/A,N/A,N/A,N/A,False,False,budget,Shopping
OPE_4485086052,Dmart,18.591486,73.744395,shopping,supermarket,N/A,N/A,,shopping|retail|market,openstreetmap,4485086052,N/A,+91 99281 39489,Mo-Su 10:00-22:00,N/A,N/A,N/A,N/A,N/A,False,False,budget,Shopping
OPE_9948728916,Dmart,18.646656,73.756634,shopping,supermarket,"72/A PCNTDA, Shinde Vasti Ravet, Pimpri Chinchwad, 411044",N/A,,shopping|retail|market,openstreetmap,9948728916,N/A,020 6850 2300,Mo-Su 07:00-23:00,N/A,N/A,N/A,N/A,N/A,False,False,budget,Shopping
OPE_359496351,Dmart,18.637239,73.79726,shopping,supermarket,N/A,N/A,,shopping|retail|market,openstreetmap,359496351,N/A,N/A,Mo-Su 07:00-22:00,N/A,N/A,N/A,N/A,N/A,False,False,budget,Shopping
OPE_359794554,Dmart,18.614143,73.784726,shopping,mall,N/A,N/A,,shopping|retail|market,openstreetmap,359794554,N/A,N/A,Mo-Su 08:00-22:00,N/A,N/A,N/A,N/A,N/A,False,False,budget,Shopping
OPE_11658404332,Dor,18.590607,73.766987,shopping,clothes,N/A,N/A,,shopping|retail|market,openstreetmap,11658404332,N/A,N/A,N/A,N/A,N/A,N/A,N/A,N/A,False,False,budget,Shopping
OPE_360489528,Dorabjee Royal Heritage Mall,18.467201,73.906233,shopping,mall,N/A,N/A,,shopping|retail|market,openstreetmap,360489528,https://royalheritagemall.com,+91 2026731221,N/A,N/A,N/A,N/A,N/A,N/A,False,False,budget,Shopping
OPE_9348284344,Dorabjee'S,18.570018,73.7745,shopping,supermarket,"Balewadi High Street, Pune, 411045",N/A,,shopping|retail|market,openstreetmap,9348284344,https://dorabjeesonline.com/,+912040110000,Mo-Su 09:30-21:00,N/A,N/A,N/A,N/A,N/A,False,False,budget,Shopping
OPE_1800027123,Dorabjee'S - Viman Nagar,18.568515,73.907446,shopping,supermarket,"No. 3, Town Square, Shopping Center Sr.No. 230A, Hissa, 1, New Airport Rd, Viman Nagar, Pune, Maharashtra 411047, India, pune, 411047",N/A,,shopping|retail|market,openstreetmap,1800027123,https://dorabjeesonline.com/,N/A,N/A,N/A,N/A,N/A,N/A,N/A,False,False,budget,Shopping
OPE_52755445,Dorabjee'S Camp,18.51891,73.876793,shopping,supermarket,"1-B, Moledina Rd, Camp, Pune, Maharashtra 411001, India, Pune, 411001",N/A,,shopping|retail|market,openstreetmap,52755445,https://dorabjeesonline.com/,N/A,N/A,N/A,N/A,N/A,N/A,N/A,False,False,budget,Shopping
OPE_8131357175,Dorabjee'S Nibm,18.472675,73.899772,shopping,supermarket,"Near, The Metropole, Survey No. 25, Hissa No 1,2,3&4, Clover Highlands Undri Rd, NIBM Undri Road, Pune, Maharashtra 411048, India, Pune, 411018",N/A,,shopping|retail|market,openstreetmap,8131357175,https://dorabjeesonline.com/,N/A,N/A,N/A,N/A,N/A,N/A,N/A,False,False,budget,Shopping
OPE_9964024484,Dream Girl Fashion,18.596201,73.774047,shopping,clothes,N/A,N/A,,shopping|retail|market,openstreetmap,9964024484,N/A,+91 95525 97285,N/A,N/A,N/A,N/A,N/A,N/A,False,False,budget,Shopping
OPE_10222924232,Durva Creations,18.444235,73.78558,shopping,clothes,"Kolhewadi Road, Pune, 411024",N/A,,shopping|retail|market,openstreetmap,10222924232,N/A,N/A,N/A,N/A,N/A,N/A,N/A,N/A,False,False,budget,Shopping
OPE_5803624702,Eira,18.492521,73.825328,shopping,clothes,411052,N/A,,shopping|retail|market,openstreetmap,5803624702,N/A,N/A,N/A,N/A,N/A,N/A,N/A,N/A,False,False,budget,Shopping
OPE_1219435160,Elpro City Square,18.628568,73.783669,shopping,mall,411033,N/A,,shopping|retail|market,openstreetmap,1219435160,https://elprocitysquare.com/,02061327111,Mo-Su 11:00-22:00,N/A,N/A,N/A,N/A,N/A,False,False,budget,Shopping
OPE_10223763773,Enamor,18.595542,73.768793,shopping,clothes,N/A,N/A,,shopping|retail|market,openstreetmap,10223763773,N/A,N/A,N/A,N/A,N/A,N/A,N/A,N/A,False,False,budget,Shopping
OPE_359811033,Envy,18.539582,73.897544,shopping,clothes,"A5, North Main Road, Pune, 411001",N/A,,shopping|retail|market,openstreetmap,359811033,N/A,0982243334,Mo-Su 10:00-22:00,N/A,N/A,N/A,N/A,N/A,False,False,budget,Shopping
OPE_11452053288,Ethnix,18.634606,73.799166,shopping,clothes,N/A,N/A,,shopping|retail|market,openstreetmap,11452053288,N/A,N/A,N/A,N/A,N/A,N/A,N/A,N/A,False,False,budget,Shopping
OPE_5839779152,Eve'S Secret,18.49101,73.822547,shopping,clothes,N/A,N/A,,shopping|retail|market,openstreetmap,5839779152,N/A,N/A,N/A,N/A,Undergarments shop,N/A,N/A,N/A,False,False,budget,Shopping
OPE_11061304557,Fab India Experience Centre,18.557075,73.80877,shopping,clothes,N/A,N/A,,shopping|retail|market,openstreetmap,11061304557,N/A,N/A,N/A,N/A,N/A,N/A,N/A,N/A,False,False,budget,Shopping
OPE_9394475544,Fabindia,18.565883,73.772193,shopping,clothes,"Gopal Hari Deshmukh Marg, Baner, Pune, 411045",N/A,,shopping|retail|market,openstreetmap,9394475544,N/A,N/A,N/A,N/A,N/A,N/A,N/A,N/A,False,False,budget,Shopping
OPE_10872867729,Fabindia,18.557688,73.808804,shopping,clothes,N/A,N/A,,shopping|retail|market,openstreetmap,10872867729,N/A,N/A,N/A,N/A,N/A,N/A,N/A,N/A,False,False,budget,Shopping
OPE_3385751213,Fabindia,18.531463,73.8759,shopping,clothes,"Bund Garden Road, Pune, 411001",N/A,,shopping|retail|market,openstreetmap,3385751213,https://www.fabindia.com/,N/A,N/A,N/A,N/A,N/A,N/A,N/A,False,False,budget,Shopping
OPE_13629197057,Farmers Market,18.579607,73.984608,shopping,marketplace,N/A,N/A,,shopping|retail|market,openstreetmap,13629197057,N/A,N/A,N/A,N/A,N/A,N/A,N/A,N/A,False,False,budget,Shopping
OPE_1123599418,Farmers Market,18.579939,73.984396,shopping,marketplace,N/A,N/A,,shopping|retail|market,openstreetmap,1123599418,N/A,N/A,N/A,N/A,N/A,N/A,N/A,N/A,False,False,budget,Shopping
OPE_10223724546,Fashion,18.595517,73.768585,shopping,clothes,N/A,N/A,,shopping|retail|market,openstreetmap,10223724546,N/A,N/A,N/A,N/A,N/A,no,N/A,N/A,False,False,budget,Shopping
OPE_12299368294,Fashion Hub,18.558523,73.931548,shopping,clothes,N/A,N/A,,shopping|retail|market,openstreetmap,12299368294,N/A,N/A,N/A,N/A,N/A,N/A,N/A,N/A,False,False,budget,Shopping
OPE_6135560374,Femina,18.553239,73.807824,shopping,clothes,N/A,N/A,,shopping|retail|market,openstreetmap,6135560374,N/A,N/A,N/A,N/A,N/A,N/A,N/A,N/A,False,False,budget,Shopping
OPE_6130922016,Fine Foods,18.558071,73.804001,shopping,supermarket,"Shankarao Gaikwad path, Pune, 411007",N/A,,shopping|retail|market,openstreetmap,6130922016,N/A,N/A,N/A,N/A,N/A,N/A,N/A,N/A,False,False,budget,Shopping
OPE_13381094102,Firoz Bangles Store,18.58898,73.862476,shopping,jewelry,"Pune, 411031",N/A,,shopping|retail|market,openstreetmap,13381094102,N/A,N/A,N/A,N/A,N/A,N/A,N/A,N/A,False,False,budget,Shopping
OPE_9876453817,First Cry,18.565755,73.807193,shopping,clothes,"20A;20B, Mahadji Shinde Marg, Pune, 411007",N/A,,shopping|retail|market,openstreetmap,9876453817,https://www.firstcry.com/,+91 8956 728 585,Mo-Su 10:00-21:30,N/A,N/A,N/A,N/A,N/A,False,False,budget,Shopping
OPE_1138256221,Fish Market,18.574615,73.877001,shopping,marketplace,N/A,N/A,,shopping|retail|market,openstreetmap,1138256221,N/A,N/A,N/A,N/A,N/A,N/A,N/A,N/A,False,False,budget,Shopping
OPE_12484021601,Ga Super Market,18.548182,73.793473,shopping,supermarket,N/A,N/A,,shopping|retail|market,openstreetmap,12484021601,N/A,+91 85529 35251,Mo-Su 06:00-23:00,N/A,N/A,N/A,N/A,N/A,False,False,budget,Shopping
OPE_13385116569,Ganesh Hot Chips,18.589397,73.862567,shopping,supermarket,Pune,N/A,,shopping|retail|market,openstreetmap,13385116569,N/A,N/A,N/A,N/A,N/A,N/A,N/A,N/A,False,False,budget,Shopping
OPE_10799598005,Ganesh Supermarket,18.545121,73.779513,shopping,supermarket,N/A,N/A,,shopping|retail|market,openstreetmap,10799598005,N/A,N/A,N/A,N/A,N/A,N/A,N/A,N/A,False,False,budget,Shopping
OPE_13666769161,Ganpati Jewellers,18.458862,73.812368,shopping,jewelry,N/A,N/A,,shopping|retail|market,openstreetmap,13666769161,N/A,N/A,N/A,N/A,N/A,N/A,N/A,N/A,False,False,budget,Shopping
OPE_12484431402,Gap,18.561075,73.807038,shopping,clothes,N/A,N/A,,shopping|retail|market,openstreetmap,12484431402,N/A,N/A,N/A,N/A,N/A,N/A,N/A,N/A,False,False,budget,Shopping
OPE_9168854314,Gaurav Fresh Mart,18.605487,73.91008,shopping,supermarket,"Shop- 23, Aeropolis, Porwal Road, Pune, 411047",N/A,,shopping|retail|market,openstreetmap,9168854314,N/A,N/A,Mo-Su 10:00-22:00,N/A,N/A,N/A,N/A,N/A,False,False,budget,Shopping
OPE_11594268019,Geeta Watch,18.462775,73.814673,shopping,supermarket,"Shop # 2, Panchratna Palace, Sinhagad Rd, Opp. Abhiruchi Mall Road,, Pune, 411041",N/A,,shopping|retail|market,openstreetmap,11594268019,N/A,+919371121232,10 am to 930 pm,N/A,N/A,N/A,N/A,N/A,False,False,budget,Shopping
OPE_10159497551,Geetanjali,18.595428,73.767914,shopping,clothes,"shop 31-32, Mhatoba road",N/A,,shopping|retail|market,openstreetmap,10159497551,N/A,+91 75584 85959,N/A,N/A,N/A,N/A,N/A,N/A,False,False,budget,Shopping
OPE_13385601810,Gentlemen,18.589773,73.862673,shopping,clothes,Pune,N/A,,shopping|retail|market,openstreetmap,13385601810,N/A,N/A,N/A,N/A,N/A,N/A,N/A,N/A,False,False,budget,Shopping
OPE_13461268170,Girija Jewellers,18.564997,73.774477,shopping,jewelry,N/A,N/A,,shopping|retail|market,openstreetmap,13461268170,N/A,N/A,N/A,N/A,N/A,N/A,N/A,N/A,False,False,budget,Shopping
OPE_5818757679,Giriraj Inner Shoppe,18.490303,73.824825,shopping,clothes,N/A,N/A,,shopping|retail|market,openstreetmap,5818757679,N/A,N/A,N/A,N/A,N/A,N/A,N/A,N/A,False,False,budget,Shopping
OPE_5773606800,Globus,18.561816,73.807099,shopping,clothes,"Westend Mall, Mahadji Shinde Marg, Pune, 411007",N/A,,shopping|retail|market,openstreetmap,5773606800,https://www.globusfashion.com/,+91 9830 892 990,N/A,N/A,N/A,N/A,N/A,N/A,False,False,budget,Shopping
OPE_11166827481,Go Colours,18.595717,73.76977,shopping,clothes,N/A,N/A,,shopping|retail|market,openstreetmap,11166827481,N/A,+91 7397 491 586,N/A,N/A,N/A,N/A,N/A,N/A,False,False,budget,Shopping
OPE_4423159407,Goal Market Complex,18.424335,73.765919,shopping,supermarket,N/A,N/A,,shopping|retail|market,openstreetmap,4423159407,N/A,N/A,N/A,N/A,N/A,N/A,N/A,N/A,False,False,budget,Shopping
OPE_4354672913,Godrej'S Natures Basket,18.536754,73.89741,shopping,supermarket,N/A,N/A,,shopping|retail|market,openstreetmap,4354672913,N/A,N/A,N/A,N/A,N/A,N/A,N/A,N/A,False,False,budget,Shopping
OPE_563777354,Gol Market,18.466602,73.76472,shopping,marketplace,N/A,N/A,,shopping|retail|market,openstreetmap,563777354,N/A,N/A,N/A,N/A,N/A,N/A,N/A,N/A,False,False,budget,Shopping
OPE_1458936468,Gol Market,18.552057,73.841167,shopping,marketplace,"Pune, 411020",N/A,,shopping|retail|market,openstreetmap,1458936468,N/A,N/A,N/A,N/A,N/A,N/A,N/A,N/A,False,False,budget,Shopping
OPE_13380458141,Gold Jewellery Shop,18.589796,73.892084,shopping,jewelry,N/A,N/A,,shopping|retail|market,openstreetmap,13380458141,N/A,N/A,N/A,N/A,N/A,N/A,N/A,N/A,False,False,budget,Shopping
OPE_923087913,Goodwill Square,18.597868,73.903988,shopping,mall,"Dhanori - Lohgaon Road, Pune, 411015",N/A,,shopping|retail|market,openstreetmap,923087913,https://choicegoodwill.com/goodwill-square/,N/A,Mo-Su 10:00-22:00,N/A,N/A,N/A,N/A,N/A,False,False,budget,Shopping
OPE_2929239715,Grahak Peth,18.507653,73.850818,shopping,supermarket,N/A,N/A,,shopping|retail|market,openstreetmap,2929239715,N/A,N/A,N/A,N/A,N/A,N/A,N/A,N/A,False,False,budget,Shopping
OPE_9203574301,Grocery Store,18.522064,73.764654,shopping,supermarket,N/A,N/A,,shopping|retail|market,openstreetmap,9203574301,N/A,N/A,N/A,N/A,N/A,N/A,N/A,N/A,False,False,budget,Shopping
OPE_11258979436,Grosery Store,18.576008,73.893111,shopping,supermarket,"Street name, Lane No 10, Pune, 411032",N/A,,shopping|retail|market,openstreetmap,11258979436,N/A,N/A,Mo-Su 09:00-22:00,N/A,N/A,N/A,N/A,N/A,False,False,budget,Shopping
OPE_13380083068,Guru Prakash,18.520752,73.864864,shopping,clothes,"somwar peth, Station Road, Pune, 411011",N/A,,shopping|retail|market,openstreetmap,13380083068,N/A,N/A,N/A,N/A,N/A,N/A,N/A,N/A,False,False,budget,Shopping
OPE_12484094801,H&M,18.562381,73.807103,shopping,clothes,N/A,N/A,,shopping|retail|market,openstreetmap,12484094801,N/A,N/A,N/A,N/A,N/A,N/A,N/A,N/A,False,False,budget,Shopping
OPE_1886884518,Hanuman Super Market,18.446812,73.849125,shopping,supermarket,N/A,N/A,,shopping|retail|market,openstreetmap,1886884518,N/A,N/A,N/A,N/A,N/A,N/A,N/A,N/A,False,False,budget,Shopping
OPE_6388666884,Happy Selection,18.513795,73.855243,shopping,jewelry,N/A,N/A,,shopping|retail|market,openstreetmap,6388666884,N/A,N/A,N/A,N/A,N/A,N/A,N/A,N/A,False,False,budget,Shopping
OPE_5814482007,Hare Krishna Super Shopee,18.478765,73.819378,shopping,supermarket,"Sinhagad Road, Pune, 411051",N/A,,shopping|retail|market,openstreetmap,5814482007,N/A,N/A,Mo-Su 09:00-21:00,N/A,N/A,N/A,N/A,N/A,False,False,budget,Shopping
OPE_11348642289,Hemant,18.594669,73.764194,shopping,jewelry,N/A,N/A,,shopping|retail|market,openstreetmap,11348642289,N/A,N/A,N/A,N/A,N/A,N/A,N/A,N/A,False,False,budget,Shopping
OPE_11966764864,Her Secret,18.554554,73.800588,shopping,clothes,N/A,N/A,,shopping|retail|market,openstreetmap,11966764864,N/A,N/A,N/A,N/A,N/A,N/A,N/A,N/A,False,False,budget,Shopping
OPE_11561312657,Hero Kalra Gems Jewellers,18.558376,73.803919,shopping,jewelry,"Shankarao Gaikwad Path, Pune, 411007",N/A,,shopping|retail|market,openstreetmap,11561312657,N/A,+91 20 2588 4664,N/A,N/A,N/A,N/A,N/A,N/A,False,False,budget,Shopping
OPE_11862160167,Hi-Choice,18.564059,73.949478,shopping,supermarket,N/A,N/A,,shopping|retail|market,openstreetmap,11862160167,N/A,N/A,N/A,N/A,N/A,N/A,N/A,N/A,False,False,budget,Shopping
OPE_10715989425,I Mart,18.619713,73.862642,shopping,supermarket,N/A,N/A,,shopping|retail|market,openstreetmap,10715989425,N/A,N/A,24/7,N/A,N/A,N/A,N/A,N/A,False,True,budget,Shopping
OPE_10726485231,Icon Tower,18.600942,73.745947,shopping,mall,N/A,N/A,,shopping|retail|market,openstreetmap,10726485231,N/A,N/A,N/A,N/A,N/A,N/A,N/A,N/A,False,False,budget,Shopping
OPE_10248124761,Indian Smart Bazaar,18.511805,73.776932,shopping,supermarket,N/A,N/A,,shopping|retail|market,openstreetmap,10248124761,N/A,N/A,N/A,N/A,N/A,N/A,N/A,N/A,False,False,budget,Shopping
OPE_13585393798,Inner Basics Bharat Sales,18.557951,73.79267,shopping,clothes,N/A,N/A,,shopping|retail|market,openstreetmap,13585393798,N/A,N/A,N/A,N/A,N/A,N/A,N/A,N/A,False,False,budget,Shopping
OPE_5818757680,Inner Casuals,18.490263,73.824815,shopping,clothes,N/A,N/A,,shopping|retail|market,openstreetmap,5818757680,N/A,N/A,N/A,N/A,N/A,N/A,N/A,N/A,False,False,budget,Shopping
OPE_158889476,Inorbit Mall,18.560446,73.920666,shopping,mall,Ahmadnagar Road,N/A,,shopping|retail|market,openstreetmap,158889476,N/A,N/A,N/A,N/A,N/A,N/A,N/A,N/A,False,False,budget,Shopping
OPE_13629196555,Inox Movie Hall,18.526853,73.877815,shopping,mall,N/A,N/A,,shopping|retail|market,openstreetmap,13629196555,N/A,N/A,N/A,N/A,N/A,N/A,N/A,N/A,False,False,budget,Shopping
OPE_7083553566,Jai Hind,18.633815,73.798721,shopping,clothes,N/A,N/A,,shopping|retail|market,openstreetmap,7083553566,N/A,N/A,N/A,N/A,N/A,N/A,N/A,N/A,False,False,budget,Shopping
OPE_9557186543,Jai Shriram Grocery,18.522268,73.764587,shopping,supermarket,"Bavdhan Budruk, 411021",N/A,,shopping|retail|market,openstreetmap,9557186543,N/A,N/A,N/A,N/A,N/A,N/A,N/A,N/A,False,False,budget,Shopping
OPE_11110362400,Jaihind,18.560176,73.808949,shopping,clothes,"ITI Road, Pune, 411007",N/A,,shopping|retail|market,openstreetmap,11110362400,https://www.jaihindretail.com,+91 20 25 897 171,Mo-Su 10:30-21:00,N/A,N/A,N/A,N/A,N/A,False,False,budget,Shopping
OPE_2274995532,Jaihind Collections,18.504822,73.821726,shopping,clothes,N/A,N/A,,shopping|retail|market,openstreetmap,2274995532,N/A,N/A,N/A,N/A,N/A,N/A,N/A,N/A,False,False,budget,Shopping
OPE_2859985524,Jaihind Collections,18.514273,73.852146,shopping,clothes,N/A,N/A,,shopping|retail|market,openstreetmap,2859985524,N/A,N/A,N/A,N/A,N/A,N/A,N/A,N/A,False,False,budget,Shopping
OPE_12534045777,Janani General Stores,18.507382,73.81796,shopping,supermarket,"ideal Colony Road, Pune, 411038",N/A,,shopping|retail|market,openstreetmap,12534045777,N/A,N/A,N/A,N/A,N/A,N/A,N/A,N/A,False,False,budget,Shopping
OPE_2183552797,Janata Sahakari Bank,18.559662,73.928289,shopping,supermarket,N/A,N/A,,shopping|retail|market,openstreetmap,2183552797,N/A,N/A,"Mo-Fr 10:00-17:00, 09:00-18:00; Sa 10:00-16:00",N/A,N/A,N/A,N/A,N/A,False,False,budget,Shopping
OPE_3309048869,Jay Ganesh,18.494239,73.83443,shopping,supermarket,N/A,N/A,,shopping|retail|market,openstreetmap,3309048869,N/A,N/A,07:00-23:00,N/A,N/A,N/A,N/A,N/A,False,False,budget,Shopping
OPE_10206677120,Jay Ganesh Super Market,18.441855,73.786082,shopping,supermarket,"Kolhewadi Road, Pune, 411024",N/A,,shopping|retail|market,openstreetmap,10206677120,N/A,N/A,N/A,N/A,N/A,N/A,N/A,N/A,False,False,budget,Shopping
OPE_10581945981,Jay Malhar Kirana Stores,18.460296,73.979633,shopping,supermarket,"Wadki Road, Fursungi, Pune, 412308",N/A,,shopping|retail|market,openstreetmap,10581945981,N/A,N/A,N/A,N/A,N/A,N/A,N/A,N/A,False,False,budget,Shopping
OPE_1485958715,Jay Shree Fruit,18.541886,73.886426,shopping,supermarket,"Burning Ghat Road, Pune, 411001",N/A,,shopping|retail|market,openstreetmap,1485958715,N/A,N/A,Mo-Su 07:00-22:00,N/A,N/A,N/A,N/A,N/A,False,False,budget,Shopping
OPE_10261057843,Jayshree Supermarket,18.548183,73.793439,shopping,supermarket,N/A,N/A,,shopping|retail|market,openstreetmap,10261057843,N/A,+91 86691 05803,Mo-Su 07:00-22:00,N/A,N/A,N/A,N/A,N/A,False,False,budget,Shopping
OPE_6315701310,Jewel Paradise,18.53083,73.874742,shopping,supermarket,"11, Sohrab Hall, Tadiwala Road, Pune, 411001",N/A,,shopping|retail|market,openstreetmap,6315701310,https://www.jewelparadise.net/,+91 9823779837,Mo-Su 12:00-19:00,N/A,Big on Style.,N/A,N/A,N/A,False,False,budget,Shopping
OPE_121898933,Jewel Square Mall,18.538909,73.885919,shopping,mall,"Koregaon Road, Pune, 411001",N/A,,shopping|retail|market,openstreetmap,121898933,https://www.jewelsquare.co.in,N/A,N/A,N/A,N/A,limited,N/A,N/A,False,False,budget,Shopping
OPE_5696339610,Jiashree Supermarket,18.548257,73.793486,shopping,supermarket,N/A,N/A,,shopping|retail|market,openstreetmap,5696339610,N/A,+91 86691 05803,Mo-Su 07:00-22:00,N/A,N/A,N/A,N/A,N/A,False,False,budget,Shopping
OPE_13629431862,Jio Super Market,18.506555,73.954214,shopping,supermarket,N/A,N/A,,shopping|retail|market,openstreetmap,13629431862,N/A,N/A,N/A,N/A,N/A,N/A,N/A,N/A,False,False,budget,Shopping
OPE_11292638584,Jockey,18.456872,73.802206,shopping,clothes,"Sinhagad Road, Pune, 411041",N/A,,shopping|retail|market,openstreetmap,11292638584,N/A,N/A,N/A,N/A,N/A,N/A,N/A,N/A,False,False,budget,Shopping
OPE_10248790569,Jockey,18.516831,73.781008,shopping,clothes,N/A,N/A,,shopping|retail|market,openstreetmap,10248790569,N/A,N/A,N/A,N/A,N/A,N/A,N/A,N/A,False,False,budget,Shopping
OPE_9990670174,Jockey,18.595303,73.769404,shopping,clothes,411057,N/A,,shopping|retail|market,openstreetmap,9990670174,N/A,N/A,N/A,N/A,N/A,N/A,N/A,N/A,False,False,budget,Shopping
OPE_10679643674,Jockey,18.600477,73.763685,shopping,clothes,N/A,N/A,,shopping|retail|market,openstreetmap,10679643674,N/A,N/A,N/A,N/A,N/A,N/A,N/A,N/A,False,False,budget,Shopping
OPE_13144484752,Jockey,18.649728,73.838856,shopping,clothes,N/A,N/A,,shopping|retail|market,openstreetmap,13144484752,N/A,N/A,N/A,N/A,N/A,N/A,N/A,N/A,False,False,budget,Shopping
OPE_13597514621,Jockey Exclusive Store,18.568067,73.767479,shopping,clothes,N/A,N/A,,shopping|retail|market,openstreetmap,13597514621,N/A,N/A,N/A,N/A,N/A,N/A,N/A,N/A,False,False,budget,Shopping
OPE_9201582578,Jockey Exclusive Store,18.603958,73.909738,shopping,clothes,"S No.- 7-8, Porwal Road, Pune, 411047",N/A,,shopping|retail|market,openstreetmap,9201582578,N/A,N/A,N/A,N/A,N/A,N/A,N/A,N/A,False,False,budget,Shopping
OPE_11061383060,Just Casuals,18.5667,73.807604,shopping,clothes,"Mahadji Shinde Marg, Pune, 411007",N/A,,shopping|retail|market,openstreetmap,11061383060,https://justcasuals.in,+91 777 001 8504,N/A,N/A,N/A,N/A,N/A,N/A,False,False,budget,Shopping
OPE_5839779126,Just In Collection,18.490621,73.823219,shopping,clothes,N/A,N/A,,shopping|retail|market,openstreetmap,5839779126,N/A,N/A,N/A,N/A,N/A,N/A,N/A,N/A,False,False,budget,Shopping
OPE_7083553557,Just In Vouge,18.632472,73.800966,shopping,clothes,N/A,N/A,,shopping|retail|market,openstreetmap,7083553557,N/A,N/A,N/A,N/A,N/A,N/A,N/A,N/A,False,False,budget,Shopping
OPE_10035392040,Jyotirling Jewellers,18.597589,73.773936,shopping,jewelry,N/A,N/A,,shopping|retail|market,openstreetmap,10035392040,N/A,+91 95522 86572 +91 90117 67122,N/A,N/A,N/A,no,N/A,N/A,False,False,budget,Shopping
OPE_13541393272,K. K. Collection,18.48176,73.798443,shopping,clothes,N/A,N/A,,shopping|retail|market,openstreetmap,13541393272,N/A,N/A,N/A,N/A,N/A,no,N/A,N/A,False,False,budget,Shopping
OPE_11298061990,Kagaru,18.560852,73.788289,shopping,jewelry,N/A,N/A,,shopping|retail|market,openstreetmap,11298061990,N/A,N/A,N/A,N/A,N/A,N/A,N/A,N/A,False,False,budget,Shopping
OPE_9595172506,Kailash Supermarket,18.521534,73.765527,shopping,supermarket,N/A,N/A,,shopping|retail|market,openstreetmap,9595172506,N/A,N/A,N/A,N/A,N/A,N/A,N/A,N/A,False,False,budget,Shopping
OPE_6128879911,Kajree,18.566351,73.771167,shopping,clothes,N/A,N/A,,shopping|retail|market,openstreetmap,6128879911,N/A,N/A,N/A,N/A,N/A,N/A,N/A,N/A,False,False,budget,Shopping
OPE_7083553555,Kajree,18.632259,73.801065,shopping,clothes,N/A,N/A,,shopping|retail|market,openstreetmap,7083553555,N/A,N/A,N/A,N/A,N/A,N/A,N/A,N/A,False,False,budget,Shopping
OPE_218422383,Kakade Center Port,18.537666,73.835968,shopping,mall,N/A,N/A,,shopping|retail|market,openstreetmap,218422383,N/A,N/A,N/A,N/A,N/A,N/A,N/A,N/A,False,False,budget,Shopping
OPE_13461268158,Kalyan Jewellers,18.563933,73.77728,shopping,jewelry,N/A,N/A,,shopping|retail|market,openstreetmap,13461268158,N/A,N/A,N/A,N/A,N/A,N/A,N/A,N/A,False,False,budget,Shopping
OPE_13633172213,Kalyan Jewellers,18.510481,73.83447,shopping,jewelry,N/A,N/A,,shopping|retail|market,openstreetmap,13633172213,N/A,N/A,N/A,N/A,N/A,N/A,N/A,N/A,False,False,budget,Shopping
OPE_6130922027,Kalyani Garments,18.564307,73.802724,shopping,clothes,"New DP Road, Pune, 411007",N/A,,shopping|retail|market,openstreetmap,6130922027,N/A,N/A,N/A,N/A,N/A,N/A,N/A,N/A,False,False,budget,Shopping
OPE_13598173700,Kamlesh Jewellers,18.558394,73.791901,shopping,jewelry,N/A,N/A,,shopping|retail|market,openstreetmap,13598173700,N/A,N/A,N/A,N/A,N/A,N/A,N/A,N/A,False,False,budget,Shopping
OPE_693742394,Kaverinagar Mandai,18.604836,73.773812,shopping,marketplace,N/A,N/A,,shopping|retail|market,openstreetmap,693742394,N/A,N/A,N/A,N/A,N/A,N/A,N/A,N/A,False,False,budget,Shopping
OPE_1162004844,Ke Mart,18.634659,73.8501,shopping,supermarket,"Pune - Nashik Hwy, opposite Haweli Hotel, Sadgurunagar, Bhosari, Pimpri-Chinchwad, Maharashtra, Pune Nashik Road, Pune, 411039",N/A,,shopping|retail|market,openstreetmap,1162004844,N/A,07620092466,Mo-Su 09:00-21:00,N/A,N/A,N/A,N/A,N/A,False,False,budget,Shopping
OPE_10039066592,Kg,18.581208,73.815475,shopping,supermarket,"56, Pimple Gurav-Navi Sangvi Road, Pune, 411027",N/A,,shopping|retail|market,openstreetmap,10039066592,N/A,N/A,Mo-Sa 08:00-18:00,N/A,N/A,N/A,N/A,N/A,False,False,budget,Shopping
OPE_13629179034,Khadki Bazar,18.569044,73.855845,shopping,marketplace,N/A,N/A,,shopping|retail|market,openstreetmap,13629179034,N/A,N/A,N/A,N/A,N/A,N/A,N/A,N/A,False,False,budget,Shopping
OPE_117374885,Khadki Business Centre,18.564629,73.851317,shopping,mall,N/A,N/A,,shopping|retail|market,openstreetmap,117374885,N/A,N/A,N/A,N/A,N/A,N/A,N/A,N/A,False,False,budget,Shopping
OPE_871523884,Khadki Fish Market,18.561808,73.837684,shopping,supermarket,N/A,N/A,,shopping|retail|market,openstreetmap,871523884,N/A,N/A,N/A,N/A,N/A,N/A,N/A,N/A,False,False,budget,Shopping
OPE_13629200612,Kids Store,18.507818,73.956445,shopping,clothes,N/A,N/A,,shopping|retail|market,openstreetmap,13629200612,N/A,N/A,N/A,N/A,N/A,N/A,N/A,N/A,False,False,budget,Shopping
OPE_6128879912,Kidz Avenue,18.566308,73.771195,shopping,clothes,N/A,N/A,,shopping|retail|market,openstreetmap,6128879912,N/A,N/A,N/A,N/A,N/A,N/A,N/A,N/A,False,False,budget,Shopping
OPE_13003622734,Kirana Store,18.550899,73.824781,shopping,supermarket,N/A,N/A,,shopping|retail|market,openstreetmap,13003622734,N/A,N/A,N/A,N/A,N/A,N/A,N/A,N/A,False,False,budget,Shopping
OPE_1597825767,Kk Market,18.46944,73.860148,shopping,supermarket,N/A,N/A,,shopping|retail|market,openstreetmap,1597825767,N/A,N/A,N/A,N/A,N/A,N/A,N/A,N/A,False,False,budget,Shopping
OPE_10837239296,Kleiden,18.543661,73.785616,shopping,clothes,N/A,N/A,,shopping|retail|market,openstreetmap,10837239296,N/A,N/A,N/A,N/A,N/A,N/A,N/A,N/A,False,False,budget,Shopping
OPE_232445444,Konark Indrayu Mall,18.47042,73.889205,shopping,mall,"Kondhwa Road, Pune, 411048",N/A,,shopping|retail|market,openstreetmap,232445444,N/A,N/A,N/A,N/A,N/A,N/A,N/A,N/A,False,False,budget,Shopping
OPE_106238111,Kpct Mall,18.503679,73.900553,shopping,mall,N/A,N/A,,shopping|retail|market,openstreetmap,106238111,N/A,N/A,N/A,N/A,N/A,N/A,N/A,N/A,False,False,budget,Shopping
OPE_6110873376,Krazy Kids,18.504228,73.820701,shopping,clothes,N/A,N/A,,shopping|retail|market,openstreetmap,6110873376,N/A,N/A,N/A,N/A,N/A,N/A,N/A,N/A,False,False,budget,Shopping
OPE_158322682,Krome,18.50681,73.907687,shopping,mall,"32/1, Pune Solapur road, 411013",N/A,,shopping|retail|market,openstreetmap,158322682,N/A,N/A,N/A,N/A,N/A,N/A,N/A,N/A,False,False,budget,Shopping
OPE_168423947,Kumar Pacific Mall,18.501133,73.872341,shopping,mall,N/A,N/A,,shopping|retail|market,openstreetmap,168423947,N/A,N/A,N/A,N/A,N/A,N/A,N/A,N/A,False,False,budget,Shopping
OPE_108034256,Kumar Pavilion,18.514028,73.879658,shopping,supermarket,"2426, East Street, Pune, 411001",N/A,,shopping|retail|market,openstreetmap,108034256,N/A,N/A,Mo-Su 10:00-21:00,N/A,N/A,N/A,N/A,shoppinglanes.com,False,False,budget,Shopping
OPE_2566241272,Lagu Bandhu,18.507616,73.829719,shopping,jewelry,N/A,N/A,,shopping|retail|market,openstreetmap,2566241272,N/A,N/A,N/A,N/A,N/A,N/A,N/A,N/A,False,False,budget,Shopping
OPE_3657496182,Lagu Bandhu,18.54621,73.820609,shopping,jewelry,N/A,N/A,,shopping|retail|market,openstreetmap,3657496182,N/A,N/A,N/A,N/A,N/A,N/A,N/A,N/A,False,False,budget,Shopping
OPE_13366276297,Laxman Jagtap Vegetable Market,18.579479,73.816147,shopping,marketplace,"Sai Chowk, New Sangvi, Pune, 411027",N/A,,shopping|retail|market,openstreetmap,13366276297,N/A,N/A,Mo-Su 09:00-22:30,N/A,N/A,N/A,N/A,N/A,False,False,budget,Shopping
OPE_10091349947,Laxmi Jewellers,18.444476,73.785423,shopping,jewelry,"Kolhewadi Road, Pune, 411024",N/A,,shopping|retail|market,openstreetmap,10091349947,N/A,N/A,N/A,N/A,N/A,N/A,N/A,N/A,False,False,budget,Shopping
OPE_10799628805,Laxmi Super Shopee,18.544795,73.780446,shopping,supermarket,Pashan-Sus Road,N/A,,shopping|retail|market,openstreetmap,10799628805,N/A,N/A,N/A,N/A,N/A,N/A,N/A,N/A,False,False,budget,Shopping
OPE_13385626639,Laxmi Tejas,18.590684,73.862985,shopping,jewelry,Pune,N/A,,shopping|retail|market,openstreetmap,13385626639,N/A,N/A,N/A,N/A,N/A,N/A,N/A,N/A,False,False,budget,Shopping
OPE_7083553552,Levi'S,18.632995,73.800734,shopping,clothes,N/A,N/A,,shopping|retail|market,openstreetmap,7083553552,N/A,N/A,N/A,N/A,N/A,N/A,N/A,N/A,False,False,budget,Shopping
OPE_7134839247,Levi'S,18.628305,73.783915,shopping,clothes,N/A,N/A,,shopping|retail|market,openstreetmap,7134839247,N/A,N/A,N/A,N/A,N/A,N/A,N/A,N/A,False,False,budget,Shopping
OPE_9802034917,Levi'S Outlet Store,18.556695,73.794051,shopping,clothes,Gopal Hari Deshmukh Marg,N/A,,shopping|retail|market,openstreetmap,9802034917,N/A,N/A,N/A,N/A,N/A,N/A,N/A,N/A,False,False,budget,Shopping
OPE_10250091306,Libas Boutique,18.553212,73.808093,shopping,clothes,N/A,N/A,,shopping|retail|market,openstreetmap,10250091306,N/A,N/A,N/A,N/A,N/A,N/A,N/A,N/A,False,False,budget,Shopping
OPE_13347293031,Lifestyle By Png,18.595782,73.770155,shopping,jewelry,N/A,N/A,,shopping|retail|market,openstreetmap,13347293031,N/A,N/A,N/A,N/A,N/A,N/A,N/A,N/A,False,False,budget,Shopping
OPE_359969678,Lighthouse Mall,18.480611,73.862806,shopping,mall,"34, Parshwanath Nagar, Bibvewadi Kondhwa Road, Pune, 411037",N/A,,shopping|retail|market,openstreetmap,359969678,N/A,N/A,Mo-Su 11:00-23:00,N/A,N/A,N/A,N/A,N/A,False,False,budget,Shopping
OPE_9521845697,Little Me,18.514568,73.831981,shopping,clothes,"Prabhat Path,Lane 14, Pune, 411004",N/A,,shopping|retail|market,openstreetmap,9521845697,N/A,N/A,N/A,N/A,N/A,N/A,N/A,N/A,False,False,budget,Shopping
OPE_3837531770,Louis Philippe,18.518399,73.844203,shopping,clothes,N/A,N/A,,shopping|retail|market,openstreetmap,3837531770,N/A,N/A,N/A,N/A,N/A,N/A,N/A,N/A,False,False,budget,Shopping
OPE_10567046810,Louis Philippe,18.556356,73.93756,shopping,clothes,N/A,N/A,,shopping|retail|market,openstreetmap,10567046810,N/A,N/A,N/A,N/A,N/A,N/A,N/A,N/A,False,False,budget,Shopping
OPE_10109219802,Ma Sona Chandi,18.596158,73.771956,shopping,jewelry,N/A,N/A,,shopping|retail|market,openstreetmap,10109219802,N/A,+91 99180 50125,N/A,N/A,N/A,N/A,N/A,N/A,False,False,budget,Shopping
OPE_13131456229,Madina Fruits & Vegetables,18.477361,73.895015,shopping,supermarket,N/A,N/A,,shopping|retail|market,openstreetmap,13131456229,N/A,N/A,N/A,N/A,N/A,N/A,N/A,N/A,False,False,budget,Shopping
OPE_10206551280,Maha Balaji Traders,18.442976,73.78588,shopping,supermarket,"Kolhewadi Road, Pune, 411024",N/A,,shopping|retail|market,openstreetmap,10206551280,N/A,N/A,N/A,N/A,N/A,N/A,N/A,N/A,False,False,budget,Shopping
OPE_10222864297,Mahabalaji Super Market,18.442903,73.785892,shopping,supermarket,"Kolhewadi Road, Pune, 411024",N/A,,shopping|retail|market,openstreetmap,10222864297,N/A,N/A,N/A,N/A,N/A,N/A,N/A,N/A,False,False,budget,Shopping
OPE_10222864283,Mahalakshmi Dhanya Bhandar,18.442428,73.78607,shopping,supermarket,"Kolhewadi Road, Pune, 411024",N/A,,shopping|retail|market,openstreetmap,10222864283,N/A,N/A,N/A,N/A,N/A,N/A,N/A,N/A,False,False,budget,Shopping
OPE_10605743865,Mahalaxmi,18.614542,73.775323,shopping,clothes,N/A,N/A,,shopping|retail|market,openstreetmap,10605743865,N/A,N/A,N/A,N/A,N/A,N/A,N/A,N/A,False,False,budget,Shopping
OPE_13375325411,Maharashtra Handloom,18.526378,73.954746,shopping,clothes,N/A,N/A,,shopping|retail|market,openstreetmap,13375325411,N/A,+91 90211 77882,N/A,N/A,N/A,no,N/A,N/A,False,False,budget,Shopping
OPE_65486228,Mahatma Phule Mandai,18.51291,73.856295,shopping,marketplace,N/A,N/A,,shopping|retail|market,openstreetmap,65486228,N/A,N/A,N/A,N/A,N/A,N/A,N/A,N/A,False,False,budget,Shopping
OPE_13381092076,Mahesh Collection,18.589033,73.862479,shopping,clothes,"Pune, 411031",N/A,,shopping|retail|market,openstreetmap,13381092076,N/A,N/A,N/A,N/A,N/A,N/A,N/A,N/A,False,False,budget,Shopping
OPE_359535810,Mahesh Collection,18.58873,73.887914,shopping,clothes,N/A,N/A,,shopping|retail|market,openstreetmap,359535810,N/A,N/A,N/A,N/A,N/A,N/A,N/A,N/A,False,False,budget,Shopping
OPE_13638581257,Mamata Shop,18.605399,73.787134,shopping,clothes,N/A,N/A,,shopping|retail|market,openstreetmap,13638581257,N/A,N/A,N/A,N/A,N/A,N/A,N/A,N/A,False,False,budget,Shopping
OPE_13232384158,Mamta Department Stores,18.546462,73.90346,shopping,supermarket,"Pune, 411006",N/A,,shopping|retail|market,openstreetmap,13232384158,N/A,N/A,N/A,N/A,N/A,N/A,N/A,N/A,False,False,budget,Shopping
OPE_10241751332,Man2Man Exclusive Mens Wear,18.510861,73.815567,shopping,clothes,"Vishwashanti Marg, Pune, 411038",N/A,,shopping|retail|market,openstreetmap,10241751332,N/A,N/A,N/A,N/A,N/A,N/A,N/A,N/A,False,False,budget,Shopping
OPE_10250096642,Mandap Boutique,18.554424,73.804764,shopping,clothes,N/A,N/A,,shopping|retail|market,openstreetmap,10250096642,N/A,N/A,N/A,N/A,N/A,N/A,N/A,N/A,False,False,budget,Shopping
OPE_13598173707,Manhood,18.558346,73.792539,shopping,clothes,N/A,N/A,,shopping|retail|market,openstreetmap,13598173707,N/A,N/A,N/A,N/A,N/A,N/A,N/A,N/A,False,False,budget,Shopping
OPE_11258981692,Manish Super Market,18.510864,73.790288,shopping,supermarket,"Borse Hospital Road, Pune, 411038",N/A,,shopping|retail|market,openstreetmap,11258981692,N/A,N/A,Mo-Su 09:00-21:00,N/A,N/A,N/A,N/A,N/A,False,False,budget,Shopping
OPE_6110873378,Manyavar,18.504243,73.820743,shopping,clothes,N/A,N/A,,shopping|retail|market,openstreetmap,6110873378,N/A,N/A,N/A,N/A,N/A,N/A,N/A,N/A,False,False,budget,Shopping
OPE_4265099883,Manyavar,18.515553,73.853615,shopping,clothes,"689, Bajirao Road",N/A,,shopping|retail|market,openstreetmap,4265099883,https://www.manyavar.com/,+912024462770,Mo-Su 10:00-21:00,N/A,N/A,N/A,N/A,N/A,False,False,budget,Shopping
OPE_6357540211,Mataji Super Market,18.460079,73.827215,shopping,supermarket,"Yashoda Residency, A Wing, Sadashiv Dangat Nagar",N/A,,shopping|retail|market,openstreetmap,6357540211,N/A,N/A,Mo-Su 06:00-22:30,N/A,N/A,N/A,N/A,N/A,False,False,budget,Shopping
OPE_9975580509,Mateshwari Super Market,18.54382,73.792653,shopping,supermarket,N/A,N/A,,shopping|retail|market,openstreetmap,9975580509,N/A,N/A,N/A,N/A,N/A,N/A,N/A,N/A,False,False,budget,Shopping
OPE_13546434295,Matoshree Collection,18.447229,73.80993,shopping,clothes,N/A,N/A,,shopping|retail|market,openstreetmap,13546434295,N/A,N/A,N/A,N/A,N/A,N/A,N/A,N/A,False,False,budget,Shopping
OPE_13598166297,Max,18.563973,73.778361,shopping,clothes,N/A,N/A,,shopping|retail|market,openstreetmap,13598166297,N/A,N/A,N/A,N/A,N/A,N/A,N/A,N/A,False,False,budget,Shopping
OPE_7083553553,Maxx,18.633389,73.800467,shopping,clothes,N/A,N/A,,shopping|retail|market,openstreetmap,7083553553,N/A,N/A,N/A,N/A,N/A,N/A,N/A,N/A,False,False,budget,Shopping
OPE_10108645137,Mayur Agency,18.480115,73.827301,shopping,supermarket,"Hingne Internal Road, Pune, 411051",N/A,,shopping|retail|market,openstreetmap,10108645137,N/A,07304657338,N/A,N/A,N/A,N/A,N/A,N/A,False,False,budget,Shopping
OPE_13583153869,Meenari,18.556239,73.794416,shopping,clothes,N/A,N/A,,shopping|retail|market,openstreetmap,13583153869,N/A,N/A,N/A,N/A,N/A,N/A,N/A,N/A,False,False,budget,Shopping
OPE_4666734489,Mega Mart,18.507431,73.805601,shopping,clothes,N/A,N/A,,shopping|retail|market,openstreetmap,4666734489,N/A,N/A,N/A,N/A,N/A,N/A,N/A,N/A,False,False,budget,Shopping
OPE_13380368152,Mega Smart Mart,18.549471,73.915549,shopping,supermarket,"vadgaonsheri, 411014",N/A,,shopping|retail|market,openstreetmap,13380368152,N/A,088559 83572,Mo-Su 08:00-21:30,N/A,N/A,N/A,N/A,N/A,False,False,budget,Shopping
OPE_256435616,Megacentre,18.503924,73.925946,shopping,supermarket,N/A,N/A,,shopping|retail|market,openstreetmap,256435616,N/A,N/A,N/A,N/A,N/A,N/A,N/A,N/A,False,False,budget,Shopping
OPE_263797370,Megamart,18.586979,73.833445,shopping,mall,N/A,N/A,,shopping|retail|market,openstreetmap,263797370,N/A,N/A,N/A,N/A,N/A,N/A,N/A,N/A,False,False,budget,Shopping
OPE_546289209,Megamart Shop,18.545961,73.904599,shopping,supermarket,N/A,N/A,,shopping|retail|market,openstreetmap,546289209,N/A,N/A,N/A,N/A,N/A,N/A,N/A,N/A,False,False,budget,Shopping
OPE_6128879913,Men'S Avenue,18.566315,73.771125,shopping,clothes,N/A,N/A,,shopping|retail|market,openstreetmap,6128879913,N/A,N/A,N/A,N/A,N/A,N/A,N/A,N/A,False,False,budget,Shopping
OPE_13629462843,Mens Wear,18.501016,73.951844,shopping,clothes,N/A,N/A,,shopping|retail|market,openstreetmap,13629462843,N/A,N/A,N/A,N/A,N/A,N/A,N/A,N/A,False,False,budget,Shopping
OPE_5589975164,Mk'S World,18.587996,73.784014,shopping,clothes,"Mahalaxmi Complex, shop no 6",N/A,,shopping|retail|market,openstreetmap,5589975164,N/A,7745085111,Mo-Su 10:30-22:30,N/A,N/A,N/A,N/A,N/A,False,False,budget,Shopping
OPE_13620069744,Monta Mart,18.508787,73.958225,shopping,supermarket,N/A,N/A,,shopping|retail|market,openstreetmap,13620069744,N/A,N/A,N/A,N/A,N/A,limited,N/A,N/A,False,False,budget,Shopping
OPE_3657496186,More,18.517313,73.780426,shopping,supermarket,N/A,N/A,,shopping|retail|market,openstreetmap,3657496186,N/A,N/A,N/A,N/A,N/A,N/A,N/A,N/A,False,False,budget,Shopping
OPE_2183552800,More,18.550808,73.939254,shopping,supermarket,N/A,N/A,,shopping|retail|market,openstreetmap,2183552800,N/A,N/A,N/A,N/A,N/A,N/A,N/A,N/A,False,False,budget,Shopping
OPE_5518035208,More Quality Store,18.58795,73.784405,shopping,mall,N/A,N/A,,shopping|retail|market,openstreetmap,5518035208,N/A,N/A,N/A,N/A,N/A,N/A,N/A,N/A,False,False,budget,Shopping
OPE_9201582639,More Supermarket,18.603795,73.909741,shopping,supermarket,"S No.-281, Porwal Road, Pune, 411047",N/A,,shopping|retail|market,openstreetmap,9201582639,N/A,N/A,N/A,N/A,N/A,N/A,N/A,N/A,False,False,budget,Shopping
OPE_1178003996,Mspace Mall,18.629485,73.808184,shopping,mall,N/A,N/A,,shopping|retail|market,openstreetmap,1178003996,N/A,N/A,N/A,N/A,N/A,N/A,N/A,N/A,False,False,budget,Shopping
OPE_13144484750,Mufti,18.649649,73.838967,shopping,clothes,N/A,N/A,,shopping|retail|market,openstreetmap,13144484750,N/A,N/A,N/A,N/A,N/A,N/A,N/A,N/A,False,False,budget,Shopping
OPE_13169236414,N C L  Market (Goel Market),18.540349,73.815855,shopping,marketplace,N/A,N/A,,shopping|retail|market,openstreetmap,13169236414,N/A,N/A,N/A,N/A,N/A,N/A,N/A,N/A,False,False,budget,Shopping
OPE_13644823992,Nandan Jwellers,18.636831,73.769777,shopping,jewelry,N/A,N/A,,shopping|retail|market,openstreetmap,13644823992,N/A,N/A,N/A,N/A,N/A,N/A,N/A,N/A,False,False,budget,Shopping
OPE_10172963310,Nandkumar Collection,18.512932,73.845636,shopping,clothes,"700, R. B. Kumthekar Marg, Pune, 411030",N/A,,shopping|retail|market,openstreetmap,10172963310,N/A,N/A,Mo-Su 10:00-21:30,N/A,N/A,N/A,N/A,N/A,False,False,budget,Shopping
OPE_9507918307,National Shop,18.510928,73.8293,shopping,supermarket,"Vishnushastri Chiplunkar Path, Pune, 411004",N/A,,shopping|retail|market,openstreetmap,9507918307,N/A,N/A,Mo-Sa 08:00-22:00,N/A,N/A,N/A,N/A,N/A,False,False,budget,Shopping
OPE_10250100119,Natraj Super Market,18.5545,73.804926,shopping,supermarket,N/A,N/A,,shopping|retail|market,openstreetmap,10250100119,N/A,N/A,N/A,N/A,N/A,N/A,N/A,N/A,False,False,budget,Shopping
OPE_13624316770,New Balaji Traders,18.499323,73.842703,shopping,supermarket,N/A,N/A,,shopping|retail|market,openstreetmap,13624316770,N/A,N/A,N/A,N/A,N/A,N/A,N/A,N/A,False,False,budget,Shopping
OPE_10108645138,New Govind Traders,18.480047,73.827427,shopping,supermarket,"Hingane Internal Road, Pune, 411051",N/A,,shopping|retail|market,openstreetmap,10108645138,N/A,09372227779,N/A,N/A,N/A,N/A,N/A,N/A,False,False,budget,Shopping
OPE_10206551278,New Krishna Jewellers,18.444217,73.785505,shopping,jewelry,"Kolhewadi Road, Pune, 411024",N/A,,shopping|retail|market,openstreetmap,10206551278,N/A,7721862826,N/A,N/A,N/A,N/A,N/A,N/A,False,False,budget,Shopping
OPE_10222924236,New Krishna Jewellers,18.444329,73.785514,shopping,jewelry,"Kolhewadi Road, Pune, 411024",N/A,,shopping|retail|market,openstreetmap,10222924236,N/A,N/A,N/A,N/A,N/A,N/A,N/A,N/A,False,False,budget,Shopping
OPE_9941718252,New Malhar Mart,18.464194,73.978849,shopping,supermarket,"Fursungi-Wadki Road, Pune, 412308",N/A,,shopping|retail|market,openstreetmap,9941718252,N/A,N/A,N/A,N/A,N/A,N/A,N/A,N/A,False,False,budget,Shopping
OPE_1040469594,Nice Mart,18.520242,73.766716,shopping,supermarket,"Uttamnagar road, Bavdhan Budruk, 411021",N/A,,shopping|retail|market,openstreetmap,1040469594,N/A,N/A,N/A,N/A,N/A,N/A,N/A,N/A,False,False,budget,Shopping
OPE_12651982278,Nike,18.507376,73.804864,shopping,clothes,N/A,N/A,,shopping|retail|market,openstreetmap,12651982278,N/A,N/A,N/A,N/A,N/A,N/A,N/A,N/A,False,False,budget,Shopping
OPE_5832438798,Nizkaya,18.518185,73.837772,shopping,clothes,N/A,N/A,,shopping|retail|market,openstreetmap,5832438798,N/A,N/A,N/A,N/A,N/A,N/A,N/A,N/A,False,False,budget,Shopping
OPE_13380522411,Nyati Plaza,18.549533,73.937358,shopping,mall,"Kharadi Road, Pune, 411014",N/A,,shopping|retail|market,openstreetmap,13380522411,N/A,N/A,Mo-Su 10:00-21:00,N/A,N/A,N/A,N/A,N/A,False,False,budget,Shopping
OPE_10833433601,Om Fashion,18.599605,73.774787,shopping,clothes,N/A,N/A,,shopping|retail|market,openstreetmap,10833433601,N/A,N/A,N/A,N/A,N/A,no,N/A,N/A,False,False,budget,Shopping
OPE_3768567965,Om Sai Collection,18.474786,73.822578,shopping,clothes,"Shop No. 4/5 (Survey No. 15), Sinhagad Road, Pune",N/A,,shopping|retail|market,openstreetmap,3768567965,N/A,02065116521,N/A,N/A,N/A,N/A,N/A,N/A,False,False,budget,Shopping
OPE_8281187610,Om Sai Dhanya Bhandar,18.588631,73.781887,shopping,supermarket,N/A,N/A,,shopping|retail|market,openstreetmap,8281187610,N/A,N/A,N/A,N/A,N/A,N/A,N/A,N/A,False,False,budget,Shopping
OPE_10725998257,Om Super Market,18.601859,73.815247,shopping,marketplace,N/A,N/A,,shopping|retail|market,openstreetmap,10725998257,N/A,N/A,N/A,N/A,N/A,N/A,N/A,N/A,False,False,budget,Shopping
OPE_13384688361,Om Supermarket,18.589254,73.862508,shopping,supermarket,Pune,N/A,,shopping|retail|market,openstreetmap,13384688361,N/A,N/A,N/A,N/A,N/A,N/A,N/A,N/A,False,False,budget,Shopping
OPE_10285672361,Orgpick,18.595378,73.766936,shopping,supermarket,Mhatoba Road,N/A,,shopping|retail|market,openstreetmap,10285672361,https://www.orgpick.com,+91 90280 49567,07:30-20:00; Mo[-1] off,N/A,N/A,no,N/A,N/A,False,False,budget,Shopping
OPE_11561312664,Origins,18.560946,73.813632,shopping,clothes,"Sanghvi Kesari Road, Pune, 411007",N/A,,shopping|retail|market,openstreetmap,11561312664,N/A,N/A,N/A,N/A,N/A,N/A,N/A,N/A,False,False,budget,Shopping
OPE_1599563269,P N Gadgil,18.510242,73.819003,shopping,jewelry,N/A,N/A,,shopping|retail|market,openstreetmap,1599563269,N/A,N/A,N/A,N/A,N/A,N/A,N/A,N/A,False,False,budget,Shopping
OPE_13461268169,P. N. Gadgil,18.564888,73.77466,shopping,jewelry,N/A,N/A,,shopping|retail|market,openstreetmap,13461268169,N/A,N/A,N/A,N/A,N/A,N/A,N/A,N/A,False,False,budget,Shopping
OPE_6131097722,P. N. Gadgil & Sons,18.564015,73.80719,shopping,jewelry,N/A,N/A,,shopping|retail|market,openstreetmap,6131097722,N/A,N/A,"PH,Tu-Su 11:00-20:30",N/A,N/A,N/A,N/A,N/A,False,False,budget,Shopping
OPE_6199355633,P. N. Gadgil Jewellers,18.556383,73.808954,shopping,jewelry,N/A,N/A,,shopping|retail|market,openstreetmap,6199355633,N/A,N/A,N/A,N/A,N/A,N/A,N/A,N/A,False,False,budget,Shopping
OPE_5832438793,Pallod,18.518126,73.838922,shopping,clothes,N/A,N/A,,shopping|retail|market,openstreetmap,5832438793,N/A,N/A,N/A,N/A,N/A,N/A,N/A,N/A,False,False,budget,Shopping
OPE_6131097708,Panchali,18.56044,73.808942,shopping,clothes,N/A,N/A,,shopping|retail|market,openstreetmap,6131097708,N/A,N/A,N/A,N/A,N/A,N/A,N/A,N/A,False,False,budget,Shopping
OPE_9990670173,Panchali,18.595295,73.769362,shopping,clothes,N/A,N/A,,shopping|retail|market,openstreetmap,9990670173,N/A,N/A,N/A,N/A,N/A,N/A,N/A,N/A,False,False,budget,Shopping
OPE_3022118148,Pantaloons,18.531313,73.829719,shopping,clothes,N/A,N/A,,shopping|retail|market,openstreetmap,3022118148,N/A,N/A,N/A,N/A,N/A,limited,N/A,N/A,False,False,budget,Shopping
OPE_6113341862,Pantaloons,18.508527,73.79166,shopping,clothes,N/A,N/A,,shopping|retail|market,openstreetmap,6113341862,N/A,N/A,N/A,N/A,N/A,N/A,N/A,N/A,False,False,budget,Shopping
OPE_9401950403,Pantaloons,18.563383,73.776505,shopping,clothes,"Amar Business Zone, Gopal Hari Deshmukh Marg, Pune, 411045",N/A,,shopping|retail|market,openstreetmap,9401950403,https://www.pantaloons.com/,+918657965637,Mo-Su 11:00-21:30,N/A,N/A,N/A,N/A,N/A,False,False,budget,Shopping
OPE_5554773680,Pantaloons,18.64793,73.787732,shopping,clothes,N/A,N/A,,shopping|retail|market,openstreetmap,5554773680,N/A,N/A,N/A,N/A,N/A,N/A,N/A,N/A,False,False,budget,Shopping
OPE_11726320393,Pantaloons,18.596923,73.796034,shopping,clothes,N/A,N/A,,shopping|retail|market,openstreetmap,11726320393,N/A,N/A,N/A,N/A,N/A,N/A,N/A,N/A,False,False,budget,Shopping
OPE_9202141603,Panthloons,18.604065,73.909937,shopping,clothes,"Porwal Road, Pune, 411047",N/A,,shopping|retail|market,openstreetmap,9202141603,N/A,N/A,N/A,N/A,N/A,N/A,N/A,N/A,False,False,budget,Shopping
OPE_11329207932,Papermint Kids Factory Outlet,18.457051,73.803915,shopping,clothes,"Sinhagad Road, Pune, 411041",N/A,,shopping|retail|market,openstreetmap,11329207932,N/A,N/A,N/A,N/A,N/A,N/A,N/A,N/A,False,False,budget,Shopping
OPE_10206551275,Parameshwar Collection,18.444417,73.785445,shopping,clothes,"Kolhewadi Road, Pune, 411024",N/A,,shopping|retail|market,openstreetmap,10206551275,N/A,N/A,N/A,N/A,N/A,N/A,N/A,N/A,False,False,budget,Shopping
OPE_6131097709,Parihar,18.560431,73.808782,shopping,clothes,N/A,N/A,,shopping|retail|market,openstreetmap,6131097709,N/A,N/A,N/A,N/A,N/A,N/A,N/A,N/A,False,False,budget,Shopping
OPE_1737337085,Parmar Tailer,18.642931,73.771756,shopping,marketplace,N/A,N/A,,shopping|retail|market,openstreetmap,1737337085,N/A,N/A,N/A,N/A,N/A,N/A,N/A,N/A,False,False,budget,Shopping
OPE_9559774765,Pashan Vegetable Market,18.537632,73.794161,shopping,marketplace,"Pashan-Sus Road, Pune, 411021",N/A,,shopping|retail|market,openstreetmap,9559774765,N/A,N/A,N/A,N/A,N/A,N/A,N/A,N/A,False,False,budget,Shopping
OPE_5695621981,Patanjali Store,18.45967,73.786046,shopping,supermarket,N/A,N/A,,shopping|retail|market,openstreetmap,5695621981,N/A,N/A,N/A,N/A,N/A,N/A,N/A,N/A,False,False,budget,Shopping
OPE_13380880732,Pawan Traders,18.637263,73.844716,shopping,supermarket,"Lakshmi Road, pune",N/A,,shopping|retail|market,openstreetmap,13380880732,N/A,N/A,N/A,N/A,N/A,N/A,N/A,N/A,False,False,budget,Shopping
OPE_11097589656,Pebbles,18.560506,73.813433,shopping,clothes,"Sanghvi Kesari Road, Pune, 411007",N/A,,shopping|retail|market,openstreetmap,11097589656,N/A,N/A,N/A,N/A,N/A,N/A,N/A,N/A,False,False,budget,Shopping
OPE_7062711326,People,18.636208,73.796396,shopping,clothes,N/A,N/A,,shopping|retail|market,openstreetmap,7062711326,N/A,N/A,N/A,N/A,N/A,N/A,N/A,N/A,False,False,budget,Shopping
OPE_10536188710,Pepe Jeans,18.55383,73.937187,shopping,clothes,N/A,N/A,,shopping|retail|market,openstreetmap,10536188710,N/A,N/A,N/A,N/A,N/A,N/A,N/A,N/A,False,False,budget,Shopping
OPE_6183911097,Peter England,18.502771,73.81754,shopping,clothes,N/A,N/A,,shopping|retail|market,openstreetmap,6183911097,N/A,N/A,N/A,N/A,N/A,N/A,N/A,N/A,False,False,budget,Shopping
OPE_11561312668,Peter England,18.560848,73.812257,shopping,clothes,"Sanghvi Kesari Road, Pune, 411007",N/A,,shopping|retail|market,openstreetmap,11561312668,https://peterengland.abfrl.in,+91 20 4005 7779,N/A,N/A,N/A,N/A,N/A,N/A,False,False,budget,Shopping
OPE_3837531775,Peter England,18.517492,73.843912,shopping,clothes,N/A,N/A,,shopping|retail|market,openstreetmap,3837531775,N/A,N/A,N/A,N/A,N/A,N/A,N/A,N/A,False,False,budget,Shopping
OPE_10567046711,Peter England,18.556721,73.937568,shopping,clothes,N/A,N/A,,shopping|retail|market,openstreetmap,10567046711,N/A,N/A,N/A,N/A,N/A,N/A,N/A,N/A,False,False,budget,Shopping
OPE_10269779899,Peter England,18.600613,73.763675,shopping,clothes,"Shop 6, Datta Mandir Road",N/A,,shopping|retail|market,openstreetmap,10269779899,N/A,N/A,11:00-21:30,N/A,N/A,N/A,N/A,N/A,False,False,budget,Shopping
OPE_169256025,Phoenix Marketcity,18.562096,73.916734,shopping,mall,"207, Viman Nagar Road, Pune, 411014",N/A,,shopping|retail|market,openstreetmap,169256025,https://www.phoenixmarketcity.com/pune,+91 020 6689 0085,Mo-Su 11:00-21:30,N/A,N/A,N/A,N/A,Category:Phoenix Marketcity (Pune),False,False,budget,Shopping
OPE_11561501965,Planet Fashion,18.560822,73.81136,shopping,clothes,"Sanghvi Kesari Road, Pune, 411007",N/A,,shopping|retail|market,openstreetmap,11561501965,https://www.planetfashion.in,+91 20 4005 8048,Mo-Fr 09:00-22:00,N/A,N/A,N/A,N/A,N/A,False,False,budget,Shopping
OPE_6327225488,Platinum Super Market,18.555879,73.76675,shopping,supermarket,N/A,N/A,,shopping|retail|market,openstreetmap,6327225488,N/A,N/A,N/A,N/A,N/A,N/A,N/A,N/A,False,False,budget,Shopping
OPE_6199355634,Png Brothers,18.556493,73.808927,shopping,jewelry,N/A,N/A,,shopping|retail|market,openstreetmap,6199355634,N/A,N/A,N/A,N/A,N/A,N/A,N/A,N/A,False,False,budget,Shopping
OPE_11061383052,Png Silvostyle,18.559997,73.80928,shopping,jewelry,N/A,N/A,,shopping|retail|market,openstreetmap,11061383052,N/A,N/A,N/A,N/A,N/A,N/A,N/A,N/A,False,False,budget,Shopping
OPE_5713386292,Pooja Super Market,18.550862,73.791904,shopping,supermarket,N/A,N/A,,shopping|retail|market,openstreetmap,5713386292,N/A,N/A,N/A,N/A,N/A,N/A,N/A,N/A,False,False,budget,Shopping
OPE_13620849113,Poona Supermarket,18.44551,73.809804,shopping,supermarket,N/A,N/A,,shopping|retail|market,openstreetmap,13620849113,N/A,N/A,N/A,N/A,N/A,N/A,N/A,N/A,False,False,budget,Shopping
OPE_13637448480,Poonam Collection,18.517203,73.841496,shopping,clothes,N/A,N/A,,shopping|retail|market,openstreetmap,13637448480,N/A,N/A,N/A,N/A,N/A,N/A,N/A,N/A,False,False,budget,Shopping
OPE_2787019789,Poonam Textiles,18.516972,73.843434,shopping,clothes,N/A,N/A,,shopping|retail|market,openstreetmap,2787019789,N/A,N/A,N/A,N/A,N/A,N/A,N/A,N/A,False,False,budget,Shopping
OPE_10108645140,Pragati Saree Center,18.479964,73.827622,shopping,clothes,"Hingane Internal Road, Pune, 411051",N/A,,shopping|retail|market,openstreetmap,10108645140,N/A,N/A,N/A,N/A,N/A,N/A,N/A,N/A,False,False,budget,Shopping
OPE_160919295,Prakash Woolen Cloths,18.517687,73.856317,shopping,clothes,N/A,N/A,,shopping|retail|market,openstreetmap,160919295,N/A,N/A,N/A,N/A,N/A,N/A,N/A,N/A,False,False,budget,Shopping
OPE_1459187839,Prem Mart,18.639806,73.845129,shopping,supermarket,"Vaishnao Mata Marg, pune",N/A,,shopping|retail|market,openstreetmap,1459187839,N/A,N/A,N/A,N/A,N/A,N/A,N/A,N/A,False,False,budget,Shopping
OPE_10117686068,Prem Supermarket,18.536197,73.899807,shopping,supermarket,N/A,N/A,,shopping|retail|market,openstreetmap,10117686068,N/A,N/A,N/A,N/A,N/A,N/A,N/A,N/A,False,False,budget,Shopping
OPE_756176584,Premier Plaza,18.635972,73.796256,shopping,mall,N/A,N/A,,shopping|retail|market,openstreetmap,756176584,N/A,N/A,N/A,N/A,N/A,N/A,N/A,N/A,False,False,budget,Shopping
OPE_752309303,Previa,18.649895,73.839901,shopping,mall,N/A,N/A,,shopping|retail|market,openstreetmap,752309303,N/A,N/A,N/A,N/A,N/A,N/A,N/A,N/A,False,False,budget,Shopping
OPE_359811354,Pride Supermarket,18.539782,73.898531,shopping,supermarket,"00, Lane 5, Pune, 411001",N/A,,shopping|retail|market,openstreetmap,359811354,https://www.pridesupermarket.com,02228769584,Mo-Su 08:00-22:00,N/A,N/A,N/A,N/A,N/A,False,False,budget,Shopping
OPE_2787019790,Priyanka,18.516914,73.843383,shopping,clothes,N/A,N/A,,shopping|retail|market,openstreetmap,2787019790,N/A,N/A,N/A,N/A,N/A,N/A,N/A,N/A,False,False,budget,Shopping
OPE_9916644098,Pro Natural,18.634068,73.812877,shopping,supermarket,"Building No. 61 (Mayur), Flat No. 6 (First floor), Masulkar Colony, Pimpri-Chinchwad, Pune, 411018",N/A,,shopping|retail|market,openstreetmap,9916644098,N/A,+91 99218 13026,N/A,N/A,N/A,N/A,N/A,N/A,False,False,budget,Shopping
OPE_11097589655,Puma,18.5605,73.813333,shopping,clothes,"Sanghvi Kesari Road, Pune, 411007",N/A,,shopping|retail|market,openstreetmap,11097589655,N/A,+91 20 4130 1938,Mo-Su 11:00-21:30,N/A,N/A,N/A,N/A,N/A,False,False,budget,Shopping
OPE_12484474401,Puma,18.56118,73.806834,shopping,clothes,N/A,N/A,,shopping|retail|market,openstreetmap,12484474401,N/A,N/A,N/A,N/A,N/A,N/A,N/A,N/A,False,False,budget,Shopping
OPE_10536188809,Puma,18.553904,73.937198,shopping,clothes,N/A,N/A,,shopping|retail|market,openstreetmap,10536188809,N/A,N/A,N/A,N/A,N/A,N/A,N/A,N/A,False,False,budget,Shopping
OPE_7083553551,Puma,18.63301,73.800539,shopping,clothes,N/A,N/A,,shopping|retail|market,openstreetmap,7083553551,N/A,N/A,N/A,N/A,N/A,N/A,N/A,N/A,False,False,budget,Shopping
OPE_7134839245,Puma,18.628775,73.784387,shopping,clothes,N/A,N/A,,shopping|retail|market,openstreetmap,7134839245,N/A,N/A,N/A,N/A,N/A,N/A,N/A,N/A,False,False,budget,Shopping
OPE_13144484749,Puma,18.649612,73.839038,shopping,clothes,N/A,N/A,,shopping|retail|market,openstreetmap,13144484749,N/A,N/A,N/A,N/A,N/A,N/A,N/A,N/A,False,False,budget,Shopping
OPE_9802034817,Puma Factory Outlet,18.556633,73.794095,shopping,clothes,Gopal Hari Deshmukh Marg,N/A,,shopping|retail|market,openstreetmap,9802034817,N/A,N/A,N/A,N/A,N/A,N/A,N/A,N/A,False,False,budget,Shopping
OPE_9298532807,Purohit Sweets,18.511539,73.866411,shopping,supermarket,"196, Bhawani Peth , Palkhi Chowk, Pune, 411042",N/A,,shopping|retail|market,openstreetmap,9298532807,N/A,N/A,N/A,N/A,N/A,N/A,N/A,N/A,False,False,budget,Shopping
OPE_10723089938,Pushpanjali,18.595913,73.771171,shopping,clothes,N/A,N/A,,shopping|retail|market,openstreetmap,10723089938,N/A,N/A,N/A,N/A,N/A,N/A,N/A,N/A,False,False,budget,Shopping
OPE_8906220335,Quick Basket,18.464222,73.923167,shopping,supermarket,"B1 Nimah Sq, Nyati Estate Road, Pune, 411060",N/A,,shopping|retail|market,openstreetmap,8906220335,https://quickbasket.store,+91 930 791 0979,24/7,N/A,N/A,N/A,N/A,N/A,False,True,budget,Shopping
OPE_9495029415,Raj,18.510458,73.833996,shopping,supermarket,N/A,N/A,,shopping|retail|market,openstreetmap,9495029415,N/A,N/A,Mo-Su 10:00-22:00,N/A,N/A,N/A,N/A,N/A,False,False,budget,Shopping
OPE_8711632386,Raj Cloth Centre,18.456837,73.819432,shopping,clothes,N/A,N/A,,shopping|retail|market,openstreetmap,8711632386,N/A,N/A,N/A,N/A,N/A,N/A,N/A,N/A,False,False,budget,Shopping
OPE_10689997733,Rajashree Market,18.643842,73.754847,shopping,supermarket,"Ravet, Pune, 412101",N/A,,shopping|retail|market,openstreetmap,10689997733,N/A,N/A,N/A,N/A,N/A,N/A,N/A,N/A,False,False,budget,Shopping
OPE_2928753030,Rajmal Lakhichand Jewellers,18.509384,73.832312,shopping,jewelry,"27/2, Gulawani Maharaj Rd, Pune, 411004",N/A,,shopping|retail|market,openstreetmap,2928753030,N/A,020 2545 7744,10:30-20:30,N/A,N/A,N/A,N/A,N/A,False,False,budget,Shopping
OPE_10747799112,Rajmata Jijau Vegetable Market,18.597803,73.905055,shopping,marketplace,N/A,N/A,,shopping|retail|market,openstreetmap,10747799112,N/A,N/A,N/A,N/A,N/A,N/A,N/A,N/A,False,False,budget,Shopping
OPE_1839836674,Raju Pardeshi Tailor,18.47061,73.855221,shopping,clothes,N/A,N/A,,shopping|retail|market,openstreetmap,1839836674,N/A,N/A,N/A,N/A,N/A,N/A,N/A,N/A,False,False,budget,Shopping
OPE_8361154881,Ram Super Market,18.588358,73.782045,shopping,supermarket,N/A,N/A,,shopping|retail|market,openstreetmap,8361154881,N/A,N/A,N/A,N/A,N/A,N/A,N/A,N/A,False,False,budget,Shopping
OPE_3610702763,Ramesh Dyeing,18.474006,73.821463,shopping,clothes,N/A,N/A,,shopping|retail|market,openstreetmap,3610702763,N/A,02024355024,N/A,N/A,N/A,N/A,N/A,N/A,False,False,budget,Shopping
OPE_11159366027,Rangchata Kurti Hub,18.557536,73.793295,shopping,clothes,N/A,N/A,,shopping|retail|market,openstreetmap,11159366027,N/A,N/A,N/A,N/A,N/A,N/A,N/A,N/A,False,False,budget,Shopping
OPE_7083553568,Ranka,18.634501,73.798045,shopping,jewelry,N/A,N/A,,shopping|retail|market,openstreetmap,7083553568,N/A,N/A,N/A,N/A,N/A,N/A,N/A,N/A,False,False,budget,Shopping
OPE_3535081955,Ranka Jewellers,18.482987,73.826837,shopping,jewelry,"Survey No. 19, Sinhagad Road",N/A,,shopping|retail|market,openstreetmap,3535081955,http://rankajewellerspune.com,02024349733,Tu-Su 10:30-20:30,N/A,N/A,N/A,N/A,N/A,False,False,budget,Shopping
OPE_10560814384,Ranka Jewellers,18.462012,73.889922,shopping,jewelry,N/A,N/A,,shopping|retail|market,openstreetmap,10560814384,N/A,N/A,N/A,N/A,N/A,N/A,N/A,N/A,False,False,budget,Shopping
OPE_11111744743,Ranka Jewellers,18.5545,73.79835,shopping,jewelry,N/A,N/A,,shopping|retail|market,openstreetmap,11111744743,N/A,N/A,N/A,N/A,N/A,N/A,N/A,N/A,False,False,budget,Shopping
OPE_10065053572,Raspberry,18.595347,73.769562,shopping,clothes,N/A,N/A,,shopping|retail|market,openstreetmap,10065053572,N/A,N/A,N/A,N/A,N/A,N/A,N/A,N/A,False,False,budget,Shopping
OPE_2192111451,Raymond,18.517309,73.842353,shopping,clothes,N/A,N/A,,shopping|retail|market,openstreetmap,2192111451,N/A,N/A,N/A,N/A,N/A,N/A,N/A,N/A,False,False,budget,Shopping
OPE_5832547677,Raymond,18.502309,73.857293,shopping,clothes,N/A,N/A,,shopping|retail|market,openstreetmap,5832547677,N/A,N/A,N/A,N/A,N/A,N/A,N/A,N/A,False,False,budget,Shopping
OPE_6116290213,Raymond,18.522066,73.847531,shopping,clothes,N/A,N/A,,shopping|retail|market,openstreetmap,6116290213,N/A,N/A,N/A,N/A,N/A,N/A,N/A,N/A,False,False,budget,Shopping
OPE_11726320394,Raymond,18.597488,73.796993,shopping,clothes,N/A,N/A,,shopping|retail|market,openstreetmap,11726320394,N/A,N/A,N/A,N/A,N/A,N/A,N/A,N/A,False,False,budget,Shopping
OPE_13597514620,Raymond,18.568029,73.767537,shopping,clothes,N/A,N/A,,shopping|retail|market,openstreetmap,13597514620,N/A,N/A,N/A,N/A,N/A,N/A,N/A,N/A,False,False,budget,Shopping
OPE_13381092079,Rd Brand Hub,18.58915,73.862476,shopping,clothes,"Pune, 411031",N/A,,shopping|retail|market,openstreetmap,13381092079,N/A,N/A,N/A,N/A,N/A,N/A,N/A,N/A,False,False,budget,Shopping
OPE_6131097707,Re-Born,18.560384,73.807966,shopping,clothes,N/A,N/A,,shopping|retail|market,openstreetmap,6131097707,N/A,N/A,N/A,N/A,N/A,N/A,N/A,N/A,False,False,budget,Shopping
OPE_10054060413,Real Mart,18.518559,73.919412,shopping,supermarket,N/A,N/A,,shopping|retail|market,openstreetmap,10054060413,N/A,N/A,N/A,N/A,N/A,N/A,N/A,N/A,False,False,budget,Shopping
OPE_7062711330,Reebok,18.636055,73.796083,shopping,clothes,N/A,N/A,,shopping|retail|market,openstreetmap,7062711330,N/A,N/A,N/A,N/A,N/A,N/A,N/A,N/A,False,False,budget,Shopping
OPE_10219123486,Reliance,18.583992,73.998205,shopping,supermarket,N/A,N/A,,shopping|retail|market,openstreetmap,10219123486,N/A,N/A,N/A,N/A,N/A,N/A,N/A,N/A,False,False,budget,Shopping
OPE_2034770043,Reliance Fresh,18.481928,73.898164,shopping,supermarket,"Salunkhe Vihar Road, Pune, 411048",N/A,,shopping|retail|market,openstreetmap,2034770043,N/A,N/A,N/A,N/A,N/A,N/A,N/A,N/A,False,False,budget,Shopping
OPE_360256407,Reliance Fresh,18.453433,73.890035,shopping,supermarket,N/A,N/A,,shopping|retail|market,openstreetmap,360256407,https://www.reliancesmart.in/,N/A,N/A,N/A,N/A,yes,N/A,N/A,False,False,budget,Shopping
OPE_1881695494,Reliance Fresh,18.509738,73.815989,shopping,supermarket,Paud Road,N/A,,shopping|retail|market,openstreetmap,1881695494,N/A,N/A,N/A,N/A,N/A,N/A,N/A,N/A,False,False,budget,Shopping
OPE_6130921996,Reliance Fresh,18.557408,73.804509,shopping,supermarket,N/A,N/A,,shopping|retail|market,openstreetmap,6130921996,N/A,N/A,Mo-Su 08:00-21:30,N/A,N/A,N/A,N/A,N/A,False,False,budget,Shopping
OPE_283152692,Reliance Fresh,18.548023,73.920474,shopping,supermarket,N/A,N/A,,shopping|retail|market,openstreetmap,283152692,N/A,N/A,N/A,N/A,N/A,N/A,N/A,N/A,False,False,budget,Shopping
OPE_8374107821,Reliance Fresh,18.502725,73.900344,shopping,supermarket,"fatima nagar, Pune, 411040",N/A,,shopping|retail|market,openstreetmap,8374107821,N/A,N/A,Mo-Su 09:00-21:00,N/A,N/A,N/A,N/A,N/A,False,False,budget,Shopping
OPE_7112842763,Reliance Fresh,18.584046,73.998206,shopping,supermarket,"Ivy Estate Road, Pune, 412207",N/A,,shopping|retail|market,openstreetmap,7112842763,N/A,N/A,Mo-Su 09:00-21:00,N/A,N/A,N/A,N/A,N/A,False,False,budget,Shopping
OPE_10219140955,Reliance Fresh,18.584075,73.998199,shopping,supermarket,"Nagar Road, Pune",N/A,,shopping|retail|market,openstreetmap,10219140955,N/A,N/A,24/7,N/A,N/A,N/A,N/A,N/A,False,True,budget,Shopping
OPE_1766250528,Reliance Mart,18.563143,73.807171,shopping,supermarket,N/A,N/A,,shopping|retail|market,openstreetmap,1766250528,N/A,N/A,Mo-Su 08:00-22:00,N/A,N/A,N/A,N/A,N/A,False,False,budget,Shopping
OPE_11183621815,Reliance Mart,18.585586,73.781284,shopping,supermarket,N/A,N/A,,shopping|retail|market,openstreetmap,11183621815,N/A,N/A,N/A,N/A,N/A,N/A,N/A,N/A,False,False,budget,Shopping
OPE_3646029467,"Reliance Mart , Fatima Nagar",18.502527,73.900337,shopping,mall,"Vitthal Rao Shivarkar Road, Pune, 411040",N/A,,shopping|retail|market,openstreetmap,3646029467,N/A,+91 20 41003500,N/A,N/A,N/A,N/A,N/A,N/A,False,False,budget,Shopping
OPE_1316290929,Reliance Smart,18.550955,73.937653,shopping,supermarket,411014,N/A,,shopping|retail|market,openstreetmap,1316290929,https://stores.reliancesmartbazaar.com/reliance-smart-superstore-shopping-outlet-haveli-pune-280435/Home,N/A,08:00-22:00,N/A,N/A,N/A,N/A,N/A,False,False,budget,Shopping
OPE_1884355789,Reliance Smart Bazaar,18.499166,73.821795,shopping,supermarket,411038,N/A,,shopping|retail|market,openstreetmap,1884355789,https://stores.reliancesmartbazaar.com/reliance-smart-bazaar-shopping-outlet-kothrud-pune-280107/Home,N/A,Mo-Su 07:00-21:00,N/A,N/A,yes,N/A,N/A,False,False,budget,Shopping
OPE_10115879724,Reliance Smart Point,18.446986,73.800141,shopping,mall,"DSK Vishwa Road, Pune, 411041",N/A,,shopping|retail|market,openstreetmap,10115879724,N/A,N/A,Mo-Su 09:00-21:00,N/A,N/A,N/A,N/A,N/A,False,False,budget,Shopping
OPE_10789970508,Reliance Smart Point,18.591261,74.003165,shopping,supermarket,"Bakori Road, Wagholi, Pune, 412207",N/A,,shopping|retail|market,openstreetmap,10789970508,https://relianceretail.com,18001027382,Mo-Su 07:00-22:00,N/A,N/A,N/A,N/A,N/A,False,False,budget,Shopping
OPE_10725502202,Reliance Smart Superstore.,18.594223,73.759654,shopping,supermarket,N/A,N/A,,shopping|retail|market,openstreetmap,10725502202,N/A,N/A,N/A,N/A,N/A,N/A,N/A,N/A,False,False,budget,Shopping
OPE_13665155731,Reliance Super Market,18.57075,73.878322,shopping,supermarket,N/A,N/A,,shopping|retail|market,openstreetmap,13665155731,N/A,N/A,N/A,N/A,N/A,yes,N/A,N/A,False,False,budget,Shopping
OPE_11508309344,Reliance Super Store,18.59095,73.82471,shopping,supermarket,"60 Feet Road, Opp. Mehfil hotel, Pune, 411061",N/A,,shopping|retail|market,openstreetmap,11508309344,N/A,N/A,Mo-Su 09:00-21:00,N/A,N/A,N/A,N/A,N/A,False,False,budget,Shopping
OPE_4452536072,Reliance Trends,18.50437,73.83353,shopping,mall,N/A,N/A,,shopping|retail|market,openstreetmap,4452536072,N/A,N/A,N/A,N/A,N/A,N/A,N/A,N/A,False,False,budget,Shopping
OPE_667277950,Renault Fatimanagar,18.506098,73.901412,shopping,mall,"Solapur Road, Pune",N/A,,shopping|retail|market,openstreetmap,667277950,N/A,N/A,Mo-Su 09:00-21:00,N/A,N/A,N/A,N/A,N/A,False,False,budget,Shopping
OPE_11246830035,Ritu'S Style Lounge,18.563036,73.783226,shopping,clothes,N/A,N/A,,shopping|retail|market,openstreetmap,11246830035,N/A,N/A,N/A,N/A,N/A,N/A,N/A,N/A,False,False,budget,Shopping
OPE_13006953206,Rohan Phataka Mart,18.582035,73.871088,shopping,supermarket,N/A,N/A,,shopping|retail|market,openstreetmap,13006953206,N/A,9766910928,Mo-Su 09:00-21:00,N/A,N/A,N/A,N/A,N/A,False,False,budget,Shopping
OPE_13620265861,Royal Garment,18.47984,73.800633,shopping,clothes,"Mumbai Bangalore Highway, near Rosary School, Atul Nagar, NDA Road",N/A,,shopping|retail|market,openstreetmap,13620265861,N/A,N/A,N/A,N/A,N/A,no,N/A,N/A,False,False,budget,Shopping
OPE_13232384157,Royal Super Market,18.546451,73.903567,shopping,supermarket,"Pune, 411006",N/A,,shopping|retail|market,openstreetmap,13232384157,N/A,N/A,N/A,N/A,N/A,N/A,N/A,N/A,False,False,budget,Shopping
OPE_11831068490,Rui,18.597312,73.763968,shopping,clothes,N/A,N/A,,shopping|retail|market,openstreetmap,11831068490,N/A,N/A,N/A,N/A,N/A,no,N/A,N/A,False,False,budget,Shopping
OPE_5879368026,Ruperi,18.503392,73.819423,shopping,clothes,N/A,N/A,,shopping|retail|market,openstreetmap,5879368026,N/A,N/A,N/A,N/A,N/A,N/A,N/A,N/A,False,False,budget,Shopping
OPE_106248808,Sacred World,18.491261,73.900385,shopping,mall,N/A,N/A,,shopping|retail|market,openstreetmap,106248808,N/A,N/A,N/A,N/A,N/A,N/A,N/A,N/A,False,False,budget,Shopping
OPE_10246158952,Sai Dutta Jewelers,18.50054,73.741936,shopping,jewelry,N/A,N/A,,shopping|retail|market,openstreetmap,10246158952,N/A,N/A,N/A,N/A,N/A,N/A,N/A,N/A,False,False,budget,Shopping
OPE_13598173718,Saisang Kurti House,18.557433,73.793438,shopping,clothes,N/A,N/A,,shopping|retail|market,openstreetmap,13598173718,N/A,N/A,N/A,N/A,N/A,N/A,N/A,N/A,False,False,budget,Shopping
OPE_12044015058,Sajde,18.601768,73.755145,shopping,clothes,"SHop 5, Western Avenue, Wakad, 411057",N/A,,shopping|retail|market,openstreetmap,12044015058,N/A,N/A,Mo-Su 10:30-21:00,N/A,N/A,N/A,N/A,N/A,False,False,budget,Shopping
OPE_13385629382,Sakina Beauty Center,18.590369,73.862851,shopping,jewelry,Pune,N/A,,shopping|retail|market,openstreetmap,13385629382,N/A,N/A,N/A,N/A,N/A,N/A,N/A,N/A,False,False,budget,Shopping
OPE_13385520763,Sanskar Super Market,18.589481,73.862582,shopping,supermarket,Pune,N/A,,shopping|retail|market,openstreetmap,13385520763,N/A,N/A,N/A,N/A,N/A,N/A,N/A,N/A,False,False,budget,Shopping
OPE_10300636343,Sapling,18.60287,73.777195,shopping,clothes,N/A,N/A,,shopping|retail|market,openstreetmap,10300636343,N/A,N/A,N/A,N/A,N/A,N/A,N/A,N/A,False,False,budget,Shopping
OPE_6367610565,Saraswati Trading Company,18.460832,73.825581,shopping,supermarket,NSG Crown,N/A,,shopping|retail|market,openstreetmap,6367610565,N/A,8600424720,N/A,N/A,N/A,N/A,N/A,N/A,False,False,budget,Shopping
OPE_5795521437,Sarin Enterprises,18.491562,73.824763,shopping,clothes,411052,N/A,,shopping|retail|market,openstreetmap,5795521437,N/A,N/A,N/A,N/A,N/A,N/A,N/A,N/A,False,False,budget,Shopping
OPE_6145662565,Saudamini Handloom,18.516749,73.841629,shopping,clothes,N/A,N/A,,shopping|retail|market,openstreetmap,6145662565,N/A,N/A,N/A,N/A,N/A,N/A,N/A,N/A,False,False,budget,Shopping
OPE_52755381,Sgs Mall,18.519496,73.877351,shopping,mall,N/A,N/A,,shopping|retail|market,openstreetmap,52755381,N/A,N/A,N/A,N/A,N/A,N/A,N/A,N/A,False,False,budget,Shopping
OPE_121807065,Shastri Nagar,18.556267,73.894306,shopping,mall,"411006, Nagar Road, pune, 411006",N/A,,shopping|retail|market,openstreetmap,121807065,N/A,N/A,Mo-Fr 08:00-17:00,N/A,N/A,N/A,N/A,N/A,False,False,budget,Shopping
OPE_13385600444,Shaurya Jewellery,18.590546,73.862911,shopping,jewelry,N/A,N/A,,shopping|retail|market,openstreetmap,13385600444,N/A,N/A,N/A,N/A,N/A,N/A,N/A,N/A,False,False,budget,Shopping
OPE_13598173701,Shiv Shakti Mens Wear,18.558296,73.792033,shopping,clothes,N/A,N/A,,shopping|retail|market,openstreetmap,13598173701,N/A,N/A,N/A,N/A,N/A,N/A,N/A,N/A,False,False,budget,Shopping
OPE_13598461949,Shivam Men & Women,18.527866,73.876133,shopping,clothes,N/A,N/A,,shopping|retail|market,openstreetmap,13598461949,N/A,N/A,N/A,N/A,N/A,N/A,N/A,N/A,False,False,budget,Shopping
OPE_13638581254,Shivtej,18.604644,73.786795,shopping,supermarket,N/A,N/A,,shopping|retail|market,openstreetmap,13638581254,N/A,N/A,N/A,N/A,N/A,N/A,N/A,N/A,False,False,budget,Shopping
OPE_5773606805,Shoppers Stop,18.562511,73.807084,shopping,clothes,"Westend Mall, Mahadji Shinde Marg, Pune, 411007",N/A,,shopping|retail|market,openstreetmap,5773606805,N/A,+91 20 6740 5201,"PH,Mo-Su 11:00-21:30",N/A,N/A,N/A,N/A,N/A,False,False,budget,Shopping
OPE_13620265853,Shravani Jewellers,18.482374,73.797529,shopping,jewelry,N/A,N/A,,shopping|retail|market,openstreetmap,13620265853,N/A,N/A,N/A,N/A,N/A,no,N/A,N/A,False,False,budget,Shopping
OPE_10302097902,Shree Balaji Traders Wholesale,18.44471,73.786047,shopping,supermarket,"Sinhagad Road, Pune, 411024",N/A,,shopping|retail|market,openstreetmap,10302097902,N/A,N/A,N/A,N/A,N/A,N/A,N/A,N/A,False,False,budget,Shopping
OPE_6367642682,Shree Ganesh Collection,18.460885,73.825751,shopping,clothes,N/A,N/A,,shopping|retail|market,openstreetmap,6367642682,N/A,N/A,N/A,N/A,N/A,N/A,N/A,N/A,False,False,budget,Shopping
OPE_10833549605,Shree Ganesh Collection,18.599717,73.774848,shopping,clothes,N/A,N/A,,shopping|retail|market,openstreetmap,10833549605,N/A,N/A,N/A,N/A,N/A,no,N/A,N/A,False,False,budget,Shopping
OPE_13385737966,Shree Ganesh Sweets,18.59105,73.863161,shopping,supermarket,Pune,N/A,,shopping|retail|market,openstreetmap,13385737966,N/A,N/A,N/A,N/A,N/A,N/A,N/A,N/A,False,False,budget,Shopping
OPE_10222864299,Shree Jewellers,18.443046,73.785939,shopping,jewelry,"Kolhewadi Road, Pune, 411024",N/A,,shopping|retail|market,openstreetmap,10222864299,N/A,N/A,N/A,N/A,N/A,N/A,N/A,N/A,False,False,budget,Shopping
OPE_8460291632,Shree Om Jewellers,18.560807,73.812737,shopping,jewelry,"Sanghvi Kesari Road, Pune, 411007",N/A,,shopping|retail|market,openstreetmap,8460291632,N/A,N/A,N/A,N/A,N/A,N/A,N/A,N/A,False,False,budget,Shopping
OPE_11820099038,Shree Radhe Pearls,18.562867,73.807632,shopping,jewelry,"Mahadji Shinde Marg, Pune, 411007",N/A,,shopping|retail|market,openstreetmap,11820099038,https://shreeradhepearls.com,+91 727 668 3757+91 826 392 9656,N/A,N/A,N/A,N/A,N/A,N/A,False,False,budget,Shopping
OPE_13594656142,Shreya Fashion,18.455772,73.811862,shopping,clothes,N/A,N/A,,shopping|retail|market,openstreetmap,13594656142,N/A,N/A,N/A,N/A,N/A,N/A,N/A,N/A,False,False,budget,Shopping
OPE_11561312666,Shri Krishna Pearls,18.56087,73.813119,shopping,jewelry,"Sanghvi Kesari Road, Pune, 411007",N/A,,shopping|retail|market,openstreetmap,11561312666,https://shrikrishnapearls.in,+91 20 2589 1919,N/A,N/A,N/A,N/A,N/A,N/A,False,False,budget,Shopping
OPE_11259029744,Shrinath General Store,18.509853,73.797447,shopping,supermarket,"V11, Indirashankar Nagari Road, Pune, 411038",N/A,,shopping|retail|market,openstreetmap,11259029744,N/A,N/A,Mo-Su 07:00-22:00,N/A,N/A,N/A,N/A,N/A,False,False,budget,Shopping
OPE_13598173702,Siddhi Kurti House,18.558265,73.792099,shopping,clothes,N/A,N/A,,shopping|retail|market,openstreetmap,13598173702,N/A,N/A,N/A,N/A,N/A,N/A,N/A,N/A,False,False,budget,Shopping
OPE_8256715249,Silver And Gold Palace,18.513745,73.877786,shopping,jewelry,N/A,N/A,,shopping|retail|market,openstreetmap,8256715249,N/A,N/A,N/A,N/A,N/A,N/A,N/A,N/A,False,False,budget,Shopping
OPE_13461268161,Simply Awesome Miss-N-Mr,18.564478,73.774904,shopping,clothes,N/A,N/A,,shopping|retail|market,openstreetmap,13461268161,N/A,N/A,N/A,N/A,N/A,N/A,N/A,N/A,False,False,budget,Shopping
OPE_11114147480,Simply Desi,18.602156,73.770294,shopping,clothes,N/A,N/A,,shopping|retail|market,openstreetmap,11114147480,N/A,N/A,Mo off; Tu-Su 10:30-21:00,N/A,N/A,N/A,N/A,N/A,False,False,budget,Shopping
OPE_9034593770,Siraskar Krushi Trading Company,18.562359,73.979042,shopping,supermarket,"900, Baif Road, Wagholi, 412207",N/A,,shopping|retail|market,openstreetmap,9034593770,N/A,7058737003,Mo-Su 09:00-21:00,N/A,N/A,N/A,N/A,N/A,False,False,budget,Shopping
OPE_11561312663,Siyaram'S,18.560909,73.8136,shopping,clothes,"Sanghvi Kesari Road, Pune, 411007",N/A,,shopping|retail|market,openstreetmap,11561312663,https://www.siyaram.com,+91 997 582 0500+91 888 872 7728+91 20 4005 8095,N/A,N/A,N/A,N/A,N/A,N/A,False,False,budget,Shopping
OPE_10871085610,Smart Kids,18.594878,73.789085,shopping,clothes,N/A,N/A,,shopping|retail|market,openstreetmap,10871085610,N/A,N/A,N/A,N/A,N/A,N/A,N/A,N/A,False,False,budget,Shopping
OPE_10799639305,Smart Point,18.54474,73.78066,shopping,supermarket,Pashan-Sus Road,N/A,,shopping|retail|market,openstreetmap,10799639305,N/A,N/A,N/A,N/A,N/A,N/A,N/A,N/A,False,False,budget,Shopping
OPE_5823516404,Sonigara Jewellers;सुजाता मस्तानी,18.640806,73.793712,shopping,ice_cream,N/A,N/A,,shopping|retail|market,openstreetmap,5823516404,N/A,N/A,N/A,N/A,N/A,N/A,N/A,N/A,False,False,budget,Shopping
OPE_5796441173,Sparkling Fashion'S,18.492386,73.824743,shopping,clothes,"Shop No. 10, 411052",N/A,,shopping|retail|market,openstreetmap,5796441173,N/A,064006626,N/A,N/A,Alternative Phone Number: 09225506626,N/A,N/A,N/A,False,False,budget,Shopping
OPE_5773606807,Speedo,18.561792,73.806917,shopping,clothes,"Shop 24, Westend Mall, Mahadji Shinde Marg, Pune, 411007",N/A,,shopping|retail|market,openstreetmap,5773606807,N/A,+91 20 2720 7415+91 8275 703 947,"PH,Mo-Su 10:30-21:00",N/A,A clothes shop selling swimming clothes,yes,N/A,N/A,False,False,budget,Shopping
OPE_360242727,Spot 18,18.593672,73.785958,shopping,mall,N/A,N/A,,shopping|retail|market,openstreetmap,360242727,N/A,N/A,"PH,Mo-Su 10:00-22:00",N/A,N/A,N/A,N/A,N/A,False,False,budget,Shopping
OPE_13144484751,Spyker,18.649695,73.838905,shopping,clothes,N/A,N/A,,shopping|retail|market,openstreetmap,13144484751,N/A,N/A,N/A,N/A,N/A,N/A,N/A,N/A,False,False,budget,Shopping
OPE_13142521037,Star Bazaar,18.559361,73.797803,shopping,supermarket,N/A,N/A,,shopping|retail|market,openstreetmap,13142521037,N/A,N/A,N/A,N/A,N/A,N/A,N/A,N/A,False,False,budget,Shopping
OPE_2183552812,Star Bazaar,18.561429,73.917204,shopping,supermarket,Nagar Road,N/A,,shopping|retail|market,openstreetmap,2183552812,https://starbazaarindia.com/,N/A,N/A,N/A,N/A,N/A,N/A,N/A,False,False,budget,Shopping
OPE_6080812458,Star Bazaar,18.519508,73.930858,shopping,supermarket,"Mundhwa Road, Pune, 411013",N/A,,shopping|retail|market,openstreetmap,6080812458,https://starbazaarindia.com/,N/A,Mo-Su 11:00-22:30,N/A,N/A,N/A,N/A,N/A,False,False,budget,Shopping
OPE_11145678102,Star Bazaar,18.583389,73.988365,shopping,supermarket,"Pune Nagar Road, Wagholi, Pune, 412207",N/A,,shopping|retail|market,openstreetmap,11145678102,https://starbazaarindia.com,N/A,Mo-Su 09:00-21:00,N/A,N/A,N/A,N/A,N/A,False,False,budget,Shopping
OPE_9800595417,Style Union,18.551651,73.794735,shopping,clothes,Baner-Pashan Link Road,N/A,,shopping|retail|market,openstreetmap,9800595417,https://stores.styleunion.in/style-union/clothing-stores-in-pune/clothing-stores-in-pashan/style-union-in-pashan-pune--1XUFSM/home,N/A,N/A,N/A,N/A,N/A,N/A,N/A,False,False,budget,Shopping
OPE_13371566432,Suman Supershopee,18.525495,73.780987,shopping,supermarket,N/A,N/A,,shopping|retail|market,openstreetmap,13371566432,N/A,N/A,Mo-Su 09:00-21:00,N/A,N/A,N/A,N/A,N/A,False,False,budget,Shopping
OPE_5713386279,Surbhi Supermarket,18.543969,73.782449,shopping,supermarket,N/A,N/A,,shopping|retail|market,openstreetmap,5713386279,N/A,N/A,N/A,N/A,N/A,N/A,N/A,N/A,False,False,budget,Shopping
OPE_13624359909,Suvarna Jewellers,18.5093,73.843492,shopping,jewelry,N/A,N/A,,shopping|retail|market,openstreetmap,13624359909,N/A,N/A,N/A,N/A,N/A,N/A,N/A,N/A,False,False,budget,Shopping
OPE_5832438799,Svelte,18.518185,73.837733,shopping,clothes,N/A,N/A,,shopping|retail|market,openstreetmap,5832438799,N/A,N/A,N/A,N/A,N/A,N/A,N/A,N/A,False,False,budget,Shopping
OPE_9433019694,Swamini Saree,18.513574,73.852854,shopping,clothes,"776, Bizzy Land Complex, R. B. Kumthekar Marg, Pune, 411030",N/A,,shopping|retail|market,openstreetmap,9433019694,N/A,N/A,Mo-Su 10:00-21:00,N/A,N/A,N/A,N/A,N/A,False,False,budget,Shopping
OPE_13390976738,Swarnam Jewellers,18.525137,73.960557,shopping,jewelry,"Shop No.1, Grace Shopping Complex, Manjari Mundhwa Road, Mhasoba Wasti, Manjari Budruk, 412307",N/A,,shopping|retail|market,openstreetmap,13390976738,N/A,+919529531008,Mo-Su 09:00-21:00,N/A,N/A,N/A,N/A,N/A,False,False,budget,Shopping
OPE_11452053286,Taneira,18.634674,73.799114,shopping,clothes,N/A,N/A,,shopping|retail|market,openstreetmap,11452053286,N/A,N/A,N/A,N/A,N/A,limited,N/A,N/A,False,False,budget,Shopping
OPE_11323346199,Tanisha Women Shopee,18.596007,73.773271,shopping,clothes,N/A,N/A,,shopping|retail|market,openstreetmap,11323346199,N/A,N/A,N/A,N/A,N/A,N/A,N/A,N/A,False,False,budget,Shopping
OPE_4508383291,Tanishq,18.475912,73.82251,shopping,jewelry,N/A,N/A,,shopping|retail|market,openstreetmap,4508383291,N/A,N/A,N/A,N/A,N/A,N/A,N/A,N/A,False,False,budget,Shopping
OPE_9947598218,Tanishq,18.553617,73.809342,shopping,jewelry,N/A,N/A,,shopping|retail|market,openstreetmap,9947598218,N/A,N/A,11:30-20:30,N/A,N/A,N/A,N/A,N/A,False,False,budget,Shopping
OPE_13461268157,Tanishq,18.564481,73.776736,shopping,jewelry,N/A,N/A,,shopping|retail|market,openstreetmap,13461268157,N/A,N/A,N/A,N/A,N/A,N/A,N/A,N/A,False,False,budget,Shopping
OPE_6244656798,Tanishq,18.513878,73.850056,shopping,jewelry,N/A,N/A,,shopping|retail|market,openstreetmap,6244656798,N/A,N/A,N/A,N/A,N/A,N/A,N/A,N/A,False,False,budget,Shopping
OPE_7083553560,Tanishq,18.631721,73.801663,shopping,jewelry,"Old Pune–Mumbai Highway, Pune, 411018",N/A,,shopping|retail|market,openstreetmap,7083553560,N/A,N/A,Mo-Su 09:00-21:00,N/A,N/A,N/A,N/A,N/A,False,False,budget,Shopping
OPE_10593804251,Taqwa Jewellers,18.470529,73.889199,shopping,jewelry,N/A,N/A,,shopping|retail|market,openstreetmap,10593804251,N/A,N/A,N/A,N/A,N/A,N/A,N/A,N/A,False,False,budget,Shopping
OPE_10596059693,Taqwa Jewellers,18.505772,73.862688,shopping,jewelry,N/A,N/A,,shopping|retail|market,openstreetmap,10596059693,N/A,N/A,N/A,N/A,N/A,N/A,N/A,N/A,False,False,budget,Shopping
OPE_11452053287,Tasva,18.634634,73.799141,shopping,clothes,N/A,N/A,,shopping|retail|market,openstreetmap,11452053287,N/A,N/A,N/A,N/A,N/A,N/A,N/A,N/A,False,False,budget,Shopping
OPE_9433019696,Tathastu,18.512935,73.84746,shopping,clothes,"709, 710, Perugate, R. B. Kumthekar Marg, Pune, 411030",N/A,,shopping|retail|market,openstreetmap,9433019696,N/A,+918806234361,Mo-Su 10:00-21:00,N/A,N/A,N/A,N/A,N/A,False,False,budget,Shopping
OPE_10565273514,The High Life Store,18.553257,73.936637,shopping,clothes,N/A,N/A,,shopping|retail|market,openstreetmap,10565273514,N/A,N/A,N/A,N/A,N/A,N/A,N/A,N/A,False,False,budget,Shopping
OPE_12246275637,The Kopa,18.539127,73.907905,shopping,mall,N/A,N/A,,shopping|retail|market,openstreetmap,12246275637,https://kopapune.com/,N/A,N/A,N/A,N/A,N/A,N/A,N/A,False,False,budget,Shopping
OPE_1019388898,The Pavillion,18.533723,73.829624,shopping,mall,"Senapati Bapat Road, Pune, 411016",N/A,,shopping|retail|market,openstreetmap,1019388898,https://www.nexusmalls.com/thepavillion-pune,+91 20 6642 1100,Mo-Su 08:00-22:00,N/A,N/A,yes,N/A,Category:The_Pavillion_(Pune),False,False,budget,Shopping
OPE_9402214069,The Raymond Shop,18.535278,73.829937,shopping,clothes,"Senepati Bapat Road, Pune",N/A,,shopping|retail|market,openstreetmap,9402214069,https://myraymond.com/,N/A,Mo-Su 10:30-21:30,N/A,N/A,N/A,N/A,N/A,False,False,budget,Shopping
OPE_1153188555,The Social Street,18.590549,73.745715,shopping,mall,N/A,N/A,,shopping|retail|market,openstreetmap,1153188555,N/A,N/A,N/A,N/A,N/A,N/A,N/A,N/A,False,False,budget,Shopping
OPE_10125611466,The Superstore,18.598286,73.763867,shopping,supermarket,N/A,N/A,,shopping|retail|market,openstreetmap,10125611466,N/A,N/A,N/A,N/A,N/A,N/A,N/A,N/A,False,False,budget,Shopping
OPE_4354672914,Theophile,18.53289,73.898504,shopping,clothes,N/A,N/A,,shopping|retail|market,openstreetmap,4354672914,N/A,N/A,N/A,N/A,N/A,N/A,N/A,N/A,False,False,budget,Shopping
OPE_6199355635,Tribhovandas Bhimji Zaveri,18.556633,73.808886,shopping,jewelry,N/A,N/A,,shopping|retail|market,openstreetmap,6199355635,N/A,N/A,N/A,N/A,N/A,N/A,N/A,N/A,False,False,budget,Shopping
OPE_5839779153,Triumph,18.491022,73.822508,shopping,clothes,N/A,N/A,,shopping|retail|market,openstreetmap,5839779153,N/A,020 2545 5179,N/A,N/A,N/A,N/A,N/A,N/A,False,False,budget,Shopping
OPE_13620265856,Ujawal Jewelers,18.482308,73.797496,shopping,jewelry,N/A,N/A,,shopping|retail|market,openstreetmap,13620265856,N/A,N/A,N/A,N/A,N/A,no,N/A,N/A,False,False,budget,Shopping
OPE_1458973367,Ukirande Kirana,18.475308,73.85166,shopping,supermarket,"Pune, 411009",N/A,,shopping|retail|market,openstreetmap,1458973367,N/A,N/A,N/A,N/A,N/A,N/A,N/A,N/A,False,False,budget,Shopping
OPE_1242067016,United Colors Of Benetton,18.519359,73.877041,shopping,clothes,N/A,N/A,,shopping|retail|market,openstreetmap,1242067016,N/A,N/A,N/A,N/A,N/A,N/A,N/A,N/A,False,False,budget,Shopping
OPE_2787018959,United Colors Of Benetton,18.517858,73.844294,shopping,clothes,"1277-A, Jangli Maharaj Path, Pune",N/A,,shopping|retail|market,openstreetmap,2787018959,N/A,02025532542,Mo-Su 10:00-22:00,N/A,N/A,N/A,N/A,N/A,False,False,budget,Shopping
